City_ID,City,Lat,Lng,Max Temp,Humidity,Cloudiness,Wind Speed,Country,Date
0,shihezi,44.3,86.0333,284.0,49,97,1.56,CN,1698618795
1,leninskoye,41.7589,69.3864,290.17,41,86,1.46,KZ,1698618796
2,port-aux-francais,-49.35,70.2167,274.68,76,100,10.86,TF,1698618796
3,bethel,41.3712,-73.414,281.42,88,100,3.09,US,1698618553
4,albany,42.6001,-73.9662,278.22,93,100,1.04,US,1698618796
5,panaba,21.2833,-88.2667,300.42,61,0,6.31,MX,1698618797
6,papatowai,-46.5619,169.4708,287.32,54,9,3.84,NZ,1698618797
7,yellowknife,62.456,-114.3525,270.02,87,75,3.6,CA,1698618541
8,condoto,5.0935,-76.6497,296.89,92,96,0.79,CO,1698618798
9,adamstown,-25.066,-130.1015,295.52,83,98,6.19,PN,1698618798
10,edinburgh of the seven seas,-37.0676,-12.3116,283.97,65,64,11.82,SH,1698618798
11,paidha,2.4167,30.9855,288.8,88,85,1.95,UG,1698618799
12,berdychiv,49.8993,28.6024,283.73,65,75,4.87,UA,1698618799
13,puerto natales,-51.7236,-72.4875,278.41,66,80,4.54,CL,1698618799
14,vallegrande,-18.4897,-64.1069,290.71,76,10,3.08,BO,1698618799
15,ribeira grande,38.5167,-28.7,290.75,64,99,3.6,PT,1698618799
16,port alfred,-33.5906,26.891,286.03,82,93,7.34,ZA,1698618800
17,bredasdorp,-34.5322,20.0403,286.29,60,0,8.55,ZA,1698618800
18,san luis de la loma,17.2706,-100.8939,301.46,82,36,3.09,MX,1698618800
19,blackmans bay,-43.0167,147.3167,286.74,64,89,2.24,AU,1698618801
20,talcahuano,-36.7167,-73.1167,284.97,62,40,5.14,CL,1698618615
21,waitangi,-43.9535,-176.5597,286.94,69,5,0.45,NZ,1698618801
22,grytviken,-54.2811,-36.5092,277.42,99,100,3.3,GS,1698618801
23,taltal,-25.4,-70.4833,290.4,75,25,2.36,CL,1698618621
24,ilulissat,69.2167,-51.1,269.16,80,100,1.54,GL,1698618802
25,tocopilla,-22.092,-70.1979,292.26,73,23,4.35,CL,1698618802
26,buala,-8.145,159.5921,302.46,72,75,2.79,SB,1698618802
27,ancud,-41.8697,-73.8203,281.09,63,70,9.67,CL,1698618802
28,port lincoln,-34.7333,135.8667,288.61,71,29,8.09,AU,1698618803
29,saint-pierre,-21.3393,55.4781,297.91,78,100,1.03,RE,1698618803
30,lebu,-37.6167,-73.65,282.68,57,56,4.59,CL,1698618803
31,santa vitoria do palmar,-33.5189,-53.3681,290.97,95,7,2.71,BR,1698618803
32,fort bragg,35.139,-79.006,299.27,55,0,3.09,US,1698618624
33,invercargill,-46.4,168.35,288.41,40,9,0.42,NZ,1698618804
34,vorgashor,67.5833,63.95,255.59,97,22,2.28,RU,1698618718
35,choibalsan,48.0667,114.5,267.59,27,29,3.18,MN,1698618804
36,kailua-kona,19.6406,-155.9956,302.56,71,20,5.66,US,1698618679
37,puerto baquerizo moreno,-0.9,-89.6,299.7,74,40,5.66,EC,1698618805
38,colonia,50.9333,6.95,285.86,76,0,5.14,DE,1698618805
39,huarmey,-10.0681,-78.1522,293.82,83,74,4.62,PE,1698618805
40,labrador city,52.9463,-66.9114,269.1,86,75,4.12,CA,1698618805
41,haiku-pauwela,20.9219,-156.3051,301.07,62,40,9.26,US,1698618805
42,ungsang-nodongjagu,42.3578,130.4622,282.17,68,31,0.99,KP,1698618806
43,badger,64.8,-147.5333,268.81,76,100,2.06,US,1698618652
44,tazovsky,67.4667,78.7,257.02,94,15,1.32,RU,1698618806
45,port elizabeth,-33.918,25.5701,287.21,75,40,3.6,ZA,1698618806
46,longyearbyen,78.2186,15.6401,268.06,93,40,5.66,SJ,1698618806
47,vila velha,-20.3297,-40.2925,299.12,78,0,6.17,BR,1698618807
48,olonkinbyen,70.9221,-8.7187,273.46,68,100,1.37,SJ,1698618807
49,udachny,66.4167,112.4,249.48,98,75,1.73,RU,1698618807
50,nema,57.5067,50.5011,270.41,97,100,3.65,RU,1698618807
51,howrah,22.5892,88.3103,296.15,88,20,0.0,IN,1698618808
52,villers-cotterets,49.2531,3.09,284.81,88,66,6.91,FR,1698618808
53,stanley,54.868,-1.6985,280.53,95,75,3.6,GB,1698618808
54,iskateley,67.6803,53.1512,264.27,86,100,5.81,RU,1698618808
55,kushiro,42.975,144.3747,281.68,81,40,1.54,JP,1698618809
56,st. john's,47.5649,-52.7093,279.51,71,75,7.72,CA,1698618521
57,berezovo,63.9381,65.0419,260.51,97,72,2.14,RU,1698618809
58,at taj,24.2049,23.2857,294.28,34,0,4.4,LY,1698618809
59,pathardi,19.1667,75.1833,293.65,48,58,2.63,IN,1698618810
60,warrnambool,-38.3833,142.4833,292.23,88,33,7.83,AU,1698618810
61,teknaf,20.8624,92.3058,295.73,76,11,2.33,BD,1698618810
62,cide,41.8921,33.0044,291.97,82,100,2.4,TR,1698618810
63,quiberon,47.4841,-3.1196,287.7,78,87,6.71,FR,1698618811
64,bamboo flat,11.7,92.7167,298.2,100,40,0.51,IN,1698618811
65,gizo,-8.103,156.8419,301.3,76,87,2.64,SB,1698618811
66,yunak,38.8142,31.7322,288.6,60,100,1.12,TR,1698618811
67,sinabang,2.4803,96.3801,298.54,85,100,1.55,ID,1698618811
68,santa maria,-29.6842,-53.8069,295.55,88,1,2.46,BR,1698618812
69,steinbach,50.1667,8.5667,284.43,94,75,3.6,DE,1698618812
70,weno,7.4515,151.8468,300.12,94,100,2.57,FM,1698618812
71,enewetak,11.3474,162.3373,302.0,75,50,9.65,MH,1698618812
72,hithadhoo,-0.6,73.0833,300.17,81,96,7.29,MV,1698618813
73,port mathurin,-19.6833,63.4167,297.8,79,11,6.84,MU,1698618813
74,constantia,44.1833,28.65,285.53,70,0,3.57,RO,1698618754
75,bubaque,11.2833,-15.8333,301.35,75,29,3.85,GW,1698618813
76,rikaze,29.25,88.8833,274.59,65,36,0.48,CN,1698618814
77,ushuaia,-54.8,-68.3,269.5,86,75,8.94,AR,1698618814
78,new norfolk,-42.7826,147.0587,287.04,72,98,4.29,AU,1698618814
79,dien bien phu,21.3833,103.0167,293.02,100,100,1.18,VN,1698618814
80,strelka,58.0728,93.0344,265.05,86,17,1.01,RU,1698618815
81,puerto ayora,-0.7393,-90.3518,297.34,87,42,3.58,EC,1698618684
82,qui nhon,13.7667,109.2333,298.11,91,96,3.5,VN,1698618815
83,gurupa,-1.405,-51.64,300.85,67,78,3.04,BR,1698618815
84,college,64.8569,-147.8028,270.18,72,75,2.06,US,1698618595
85,rey bouba,8.6724,14.1786,298.23,73,48,2.14,CM,1698618816
86,belmonte,-15.8631,-38.8828,297.55,74,19,4.34,BR,1698618816
87,hadibu,12.65,54.0333,298.94,78,66,3.4,YE,1698618816
88,campbell river,50.0163,-125.2446,280.86,61,75,2.57,CA,1698618598
89,capitan bado,-23.2667,-55.5333,297.19,80,99,2.3,PY,1698618817
90,san patricio,28.017,-97.5169,302.02,60,53,4.76,US,1698618817
91,zabol,32.25,67.25,285.27,46,1,2.6,AF,1698618817
92,villaviciosa,43.4813,-5.4357,286.12,97,98,1.35,ES,1698618817
93,windhoek,-22.5594,17.0832,293.77,18,0,3.03,NA,1698618725
94,wailua homesteads,22.0669,-159.378,300.21,71,0,4.12,US,1698618818
95,newman,37.3138,-121.0208,292.95,30,0,1.79,US,1698618818
96,afaahiti,-17.75,-149.2833,300.08,82,33,6.62,PF,1698618818
97,sitka,57.0531,-135.33,281.09,66,75,0.0,US,1698618819
98,ikalamavony,-21.15,46.5833,295.37,58,23,1.13,MG,1698618819
99,zuyevka,58.405,51.1335,270.5,94,100,3.14,RU,1698618819
100,avarua,-21.2078,-159.775,298.18,65,75,4.12,CK,1698618819
101,lazaro cardenas,17.9583,-102.2,301.75,78,25,3.9,MX,1698618747
102,agboville,5.928,-4.2132,296.95,96,55,1.12,CI,1698618820
103,east london,-33.0153,27.9116,287.32,67,96,5.73,ZA,1698618820
104,bokoro,12.3807,17.0568,303.54,17,11,3.39,TD,1698618820
105,swanage,50.6092,-1.9626,284.26,92,22,12.11,GB,1698618820
106,flying fish cove,-10.4217,105.6791,297.97,94,75,3.6,CX,1698618821
107,anadyr,64.75,177.4833,270.93,92,75,7.0,RU,1698618821
108,chaiyaphum,15.75,102.0,297.12,92,100,3.84,TH,1698618821
109,faya-largeau,17.9257,19.1043,299.57,17,3,6.03,TD,1698618821
110,whitehorse,60.7161,-135.0538,271.58,86,75,7.2,CA,1698618618
111,totoras,-32.5844,-61.1685,295.21,64,42,2.37,AR,1698618822
112,vernon,50.2581,-119.2691,279.03,49,28,1.54,CA,1698618804
113,boulder city,35.9786,-114.8325,288.48,11,0,7.2,US,1698618822
114,margaret river,-33.95,115.0667,285.95,63,92,4.38,AU,1698618822
115,krutaya gorka,55.3649,73.2231,269.97,76,100,5.73,RU,1698618823
116,nantucket,41.2835,-70.0995,283.94,79,100,6.69,US,1698618819
117,naracoorte,-36.9579,140.7383,287.46,77,42,7.87,AU,1698618823
118,muhammadabad,25.6333,83.75,293.28,55,2,0.56,IN,1698618823
119,talnakh,69.4865,88.3972,253.82,93,56,1.76,RU,1698618824
120,el calafate,-50.3408,-72.2768,278.84,52,79,5.52,AR,1698618824
121,port isabel,26.0734,-97.2086,303.59,62,0,8.75,US,1698618824
122,pleven,43.4167,24.6167,287.12,77,0,2.06,BG,1698618824
123,thompson,55.7435,-97.8558,270.24,68,75,3.6,CA,1698618767
124,fada,9.5667,8.3,296.19,54,84,1.35,NG,1698618825
125,gaspra,44.4333,34.1,289.29,56,0,2.78,UA,1698618825
126,namibe,-15.1961,12.1522,293.14,86,12,1.38,AO,1698618825
127,iqaluit,63.7506,-68.5145,266.0,63,100,5.14,CA,1698618825
128,keflavik,64.0049,-22.5624,277.39,75,75,2.06,IS,1698618826
129,bel ombre,-4.6167,55.4167,299.06,89,40,1.03,SC,1698618826
130,saipan,15.1355,145.701,302.54,84,40,4.12,MP,1698618826
131,aasiaat,68.7098,-52.8699,267.45,77,100,1.28,GL,1698618826
132,nicoya,10.1483,-85.452,297.65,92,96,1.5,CR,1698618826
133,tual,-5.6667,132.75,300.53,80,100,4.88,ID,1698618827
134,punta arenas,-53.15,-70.9167,281.21,49,20,8.75,CL,1698618827
135,uray,60.1247,64.7758,266.97,69,100,2.68,RU,1698618827
136,onverwacht,5.5833,-55.1833,300.92,79,81,2.67,SR,1698618827
137,marine corps base hawaii - mcbh,21.4453,-157.7513,302.67,60,0,3.6,US,1698618827
138,nagqu,31.5,92.0,268.81,89,100,2.33,CN,1698618828
139,west island,-12.1568,96.8225,299.14,83,100,6.69,CC,1698618664
140,brak,27.5496,14.2714,296.11,24,7,4.71,LY,1698618828
141,coquimbo,-29.9533,-71.3436,290.0,82,20,6.17,CL,1698618699
142,hermanus,-34.4187,19.2345,286.63,63,0,10.96,ZA,1698618829
143,fortaleza,-3.7227,-38.5247,301.76,71,0,4.63,BR,1698618600
144,contai,21.7786,87.7536,293.57,76,72,2.6,IN,1698618829
145,cooper's town,26.8667,-77.5167,298.91,70,0,9.54,BS,1698618829
146,kapuskasing,49.4169,-82.4331,272.15,80,75,1.54,CA,1698618829
147,prieska,-29.6641,22.7474,282.4,37,0,9.95,ZA,1698618693
148,qaqortoq,60.7167,-46.0333,277.93,64,100,5.62,GL,1698618556
149,juan aldama,24.2908,-103.3944,295.75,47,68,2.04,MX,1698618830
150,grootfontein,-19.5667,18.1167,297.16,15,15,2.64,NA,1698618830
151,dudinka,69.4058,86.1778,256.3,98,63,1.79,RU,1698618742
152,paracuru,-3.41,-39.0306,300.99,78,61,5.35,BR,1698618831
153,dolores,-36.3132,-57.6792,285.65,82,100,7.57,AR,1698618831
154,kodiak,57.79,-152.4072,281.88,93,100,4.12,US,1698618831
155,fale old settlement,-9.3852,-171.2468,302.04,69,91,5.37,TK,1698618831
156,phultala,22.7,89.5167,293.69,78,100,1.61,BD,1698618832
157,ebon,4.582,168.6964,301.69,75,95,3.65,MH,1698618832
158,barclayville,4.6797,-8.2339,298.41,91,2,2.33,LR,1698618832
159,souillac,-20.5167,57.5167,296.36,94,40,0.0,MU,1698618832
160,kapa'a,22.0752,-159.319,300.94,71,0,4.12,US,1698618832
161,ust-nera,64.5667,143.2,255.67,97,61,0.5,RU,1698618833
162,kruisfontein,-34.0033,24.7314,284.2,58,58,3.45,ZA,1698618833
163,nelson bay,-32.7167,152.15,295.29,63,2,2.24,AU,1698618833
164,okhotsk,59.3833,143.3,267.11,78,21,3.78,RU,1698618740
165,kill devil hills,36.0307,-75.676,296.1,72,0,5.66,US,1698618695
166,mbanza-ngungu,-5.25,14.8667,296.44,76,99,0.47,CD,1698618834
167,vilyuchinsk,52.9306,158.4028,277.0,86,94,2.72,RU,1698618834
168,mount gambier,-37.8333,140.7667,283.53,95,84,3.4,AU,1698618573
169,chonchi,-42.6128,-73.8092,278.22,96,57,4.41,CL,1698618834
170,taksimo,56.3444,114.8794,260.64,64,18,1.45,RU,1698618834
171,nova sintra,14.8667,-24.7167,296.05,69,74,3.75,CV,1698618835
172,katabu,-4.9333,122.5167,299.5,73,72,1.54,ID,1698618835
173,selfoss,63.9331,-20.9971,272.62,70,71,2.84,IS,1698618835
174,serov,59.6033,60.5787,267.21,89,100,4.22,RU,1698618740
175,gamba,-2.65,10.0,298.45,91,46,2.81,GA,1698618836
176,manggar,-2.8833,108.2667,300.56,76,48,3.32,ID,1698618836
177,mocimboa,-11.3167,40.35,298.28,89,34,3.01,MZ,1698618836
178,zhoushan,30.0108,122.2047,293.8,70,50,3.11,CN,1698618836
179,palikir - national government center,6.9248,158.1611,298.56,94,100,1.54,FM,1698618837
180,jamestown,42.097,-79.2353,281.53,95,100,2.24,US,1698618837
181,tiflet,33.8947,-6.3065,291.48,68,100,2.25,MA,1698618837
182,xichang,27.8964,102.2634,285.54,87,43,0.87,CN,1698618837
183,petropavlovsk-kamchatsky,53.0452,158.6483,276.18,59,100,3.0,RU,1698618663
184,mossel bay,-34.1831,22.146,284.11,62,3,7.75,ZA,1698618838
185,carutapera,-1.195,-46.02,299.57,77,62,4.07,BR,1698618838
186,kone,-21.0595,164.8658,298.4,42,8,3.3,NC,1698618838
187,manokwari,-0.8667,134.0833,300.25,73,57,0.09,ID,1698618838
188,ciro marina,39.3732,17.126,292.44,70,0,2.31,IT,1698618839
189,malango,-2.9627,119.9001,295.32,73,83,0.23,ID,1698618839
190,fortuna,40.5982,-124.1573,293.74,47,0,4.63,US,1698618560
191,ikskile,56.8333,24.5,274.06,93,100,4.44,LV,1698618839
192,cidreira,-30.1811,-50.2056,294.11,90,85,2.08,BR,1698618839
193,hawaiian paradise park,19.5933,-154.9731,300.95,74,20,5.14,US,1698618840
194,high rock,26.6208,-78.2833,299.16,70,2,9.14,BS,1698618840
195,dargecit,37.5454,41.7197,288.31,46,39,1.65,TR,1698618840
196,marsa alam,25.0757,34.8918,299.66,74,53,1.76,EG,1698618840
197,karkira,36.9292,6.5856,295.74,47,24,3.54,DZ,1698618840
198,benguela,-12.5763,13.4055,297.82,83,22,2.66,AO,1698618841
199,beira,-19.8436,34.8389,298.2,78,40,8.23,MZ,1698618841
200,la passe,45.5549,-0.8967,285.38,93,100,2.89,FR,1698618841
201,liaocheng,36.4439,115.9647,288.48,70,3,3.4,CN,1698618841
202,unhel,23.3333,75.5667,293.29,44,100,2.15,IN,1698618841
203,dubrovnik,42.6481,18.0922,290.95,55,0,3.6,HR,1698618842
204,forster,-32.1667,152.5167,296.09,59,6,4.39,AU,1698618693
205,samfya,-11.3649,29.5565,295.72,68,98,1.99,ZM,1698618842
206,aykhal,66.0,111.5,247.22,99,51,1.8,RU,1698618842
207,el granada,37.5027,-122.4694,294.61,18,0,4.63,US,1698618843
208,bawshar,23.5556,58.3989,299.8,65,5,1.03,OM,1698618843
209,al mijlad,11.0333,27.7333,301.09,51,16,2.54,SD,1698618843
210,taoudenni,22.6783,-3.9836,304.8,11,0,3.4,ML,1698618843
211,burang,30.25,81.1667,272.28,84,14,0.97,CN,1698618844
212,roma,43.2128,-75.4557,279.68,92,100,2.06,US,1698618681
213,luderitz,-26.6481,15.1594,295.81,30,0,5.84,NA,1698618844
214,nar'yan-mar,67.6713,53.087,264.32,86,100,5.81,RU,1698618795
215,guajara mirim,-10.7828,-65.3394,296.33,97,64,2.38,BR,1698618845
216,chegdomyn,51.1167,133.0167,274.12,64,98,0.56,RU,1698618845
217,kollo,13.3043,2.339,304.39,17,2,3.65,NE,1698618845
218,okha,53.5739,142.9478,276.52,81,100,5.28,RU,1698618737
219,necochea,-38.5473,-58.7368,285.98,49,25,7.09,AR,1698618717
220,tromso,69.6496,18.957,270.16,93,75,0.51,NO,1698618846
221,pizarro,4.9533,-77.366,298.57,85,72,0.96,CO,1698618846
222,katsuura,35.1333,140.3,290.11,64,0,4.78,JP,1698618846
223,saudarkrokur,65.7461,-19.6394,272.34,80,25,3.31,IS,1698618847
224,magdagachi,53.45,125.8,269.18,70,100,3.85,RU,1698618847
225,bilibino,68.0546,166.4372,251.87,89,11,2.08,RU,1698618847
226,balboa,2.0396,-77.2168,290.63,92,97,1.73,CO,1698618848
227,morant bay,17.8815,-76.4093,302.94,84,70,2.74,JM,1698618848
228,toliara,-23.35,43.6667,295.17,81,7,2.75,MG,1698618848
229,usinsk,65.9939,57.5281,261.52,87,100,2.68,RU,1698618848
230,hamilton,39.1834,-84.5333,286.34,96,100,1.79,US,1698618705
231,alvaraes,-3.2208,-64.8042,306.08,39,91,1.17,BR,1698618849
232,codrington,-38.2667,141.9667,284.3,95,41,5.11,AU,1698618849
233,lata,40.1629,-8.3327,287.39,92,65,2.28,PT,1698618849
234,khandyga,62.6667,135.6,266.85,97,100,0.99,RU,1698618849
235,chake chake,-5.2459,39.7666,298.01,89,75,3.29,TZ,1698618850
236,ketchikan,55.3422,-131.6461,278.41,81,75,2.06,US,1698618850
237,chipinge,-20.1883,32.6236,287.24,93,97,2.51,ZW,1698618850
238,jiazi,22.8779,116.067,295.46,81,79,5.1,CN,1698618850
239,utrik,11.2278,169.8474,301.33,80,26,9.3,MH,1698618851
240,remire-montjoly,4.9167,-52.2667,302.17,79,0,3.09,GF,1698618851
241,kasempa,-13.4584,25.8338,292.61,81,91,2.22,ZM,1698618851
242,esquel,-42.9,-71.3167,274.77,76,56,4.5,AR,1698618852
243,xai-xai,-25.0519,33.6442,292.32,64,100,8.74,MZ,1698618794
244,marsh harbour,26.5412,-77.0636,299.11,71,15,9.22,BS,1698618852
245,baruun-urt,46.6806,113.2792,269.42,37,17,2.35,MN,1698618853
246,hovd,48.0056,91.6419,274.02,62,54,0.44,MN,1698618853
247,whitby,54.4877,-0.615,282.13,92,100,2.24,GB,1698618310
248,lihue,21.9789,-159.3672,300.66,70,0,4.12,US,1698618853
249,urangan,-25.3,152.9,294.48,57,1,0.67,AU,1698618854
250,sisimiut,66.9395,-53.6735,270.32,72,100,4.28,GL,1698618854
251,al kharijah,25.4514,30.5464,297.89,39,5,3.68,EG,1698618854
252,homer,59.6425,-151.5483,284.09,58,100,0.0,US,1698618855
253,north bay,46.3168,-79.4663,277.89,68,100,3.09,CA,1698618706
254,tiksi,71.6872,128.8694,256.75,98,91,2.91,RU,1698618855
255,praia da vitoria,38.7333,-27.0667,288.29,88,40,2.73,PT,1698618856
256,isafjordur,66.0755,-23.124,274.27,79,25,1.47,IS,1698618856
257,camargo,27.6667,-105.1667,303.0,18,0,1.78,MX,1698618856
258,oranjemund,-28.55,16.4333,293.4,27,0,4.31,NA,1698618856
259,portage,41.1667,-81.1998,283.49,91,100,0.0,US,1698618857
260,ciudad bolivar,8.1222,-63.5497,303.21,59,81,4.53,VE,1698618857
261,barentu,15.1139,37.5928,296.89,62,97,2.08,ER,1698618857
262,berdigestyakh,62.0989,126.6992,249.6,100,78,0.92,RU,1698618796
263,saint-francois,46.4154,3.9054,284.82,100,0,1.54,FR,1698618858
264,limache,-33.0167,-71.2667,287.3,91,94,1.65,CL,1698618690
265,puerto madero,14.7208,-92.4215,304.26,79,40,4.12,MX,1698618858
266,grand gaube,-20.0064,57.6608,296.14,77,7,0.89,MU,1698618859
267,champerico,14.3,-91.9167,304.45,83,100,4.85,GT,1698618859
268,concepcion del oro,24.6333,-101.4167,297.07,33,34,0.45,MX,1698618859
269,antsiranana,-12.2787,49.2917,297.58,78,23,6.94,MG,1698618859
270,taviano,39.9835,18.0868,288.09,76,0,2.18,IT,1698618860
271,hammerfest,70.6634,23.6821,268.4,86,40,1.03,NO,1698618860
272,horta,38.5333,-28.6333,290.07,66,98,3.37,PT,1698618860
273,sarandi del yi,-33.35,-55.6333,294.57,78,53,1.89,UY,1698618860
274,suva,-18.1416,178.4415,299.86,83,75,2.06,FJ,1698618773
275,kas,36.2018,29.6377,295.04,64,100,1.5,TR,1698618861
276,qamdo,31.1667,97.2333,269.73,38,100,2.23,CN,1698618861
277,villa ocampo,-28.4875,-59.3551,301.03,59,17,3.51,AR,1698618861
278,bure,10.7,37.0667,286.99,94,100,0.62,ET,1698618862
279,igarka,67.4667,86.5833,256.16,97,39,0.68,RU,1698618862
280,zyryanskoye,56.8306,86.6258,264.29,93,12,2.23,RU,1698618862
281,mar del plata,-38.0023,-57.5575,288.2,59,0,2.24,AR,1698618662
282,acarau,-2.8856,-40.12,299.8,74,34,7.07,BR,1698618863
283,umm kaddadah,13.6017,26.6876,301.17,15,11,4.57,SD,1698618863
284,kupang,-10.1667,123.5833,298.47,83,20,2.06,ID,1698618863
285,tantou,26.0314,119.5986,292.02,68,0,3.0,CN,1698618863
286,custoias,41.1053,-7.321,283.79,87,83,4.74,PT,1698618864
287,phulpur,25.55,82.1,293.78,49,8,1.01,IN,1698618821
288,prince george,53.9166,-122.753,276.22,49,0,3.09,CA,1698618864
289,mahibadhoo,3.7833,72.9667,300.99,75,100,5.57,MV,1698618864
290,horodok,49.1637,26.5839,285.2,66,83,3.74,UA,1698618864
291,richards bay,-28.783,32.0377,289.41,58,100,7.48,ZA,1698618865
292,ouallam,14.3188,2.0866,303.77,14,56,2.55,NE,1698618865
293,kununurra,-15.7667,128.7333,297.14,83,53,0.0,AU,1698618865
294,cadale,2.7603,46.3222,298.66,79,100,4.5,SO,1698618865
295,whakatane,-37.9585,176.9854,288.45,91,100,2.68,NZ,1698618866
296,yaren,-0.5472,166.916,301.5,70,61,2.59,NR,1698618866
297,kingscliff,-28.2667,153.5667,296.15,49,40,5.66,AU,1698618866
298,san martin,-33.081,-68.4681,303.45,11,0,9.07,AR,1698618866
299,bayanhongor,46.7167,100.1167,270.2,96,98,0.83,MN,1698618867
300,castillos,-34.1667,-53.8333,288.99,95,12,2.03,UY,1698618867
301,callao,-12.0667,-77.15,295.31,68,0,6.69,PE,1698618696
302,karimganj,24.8667,92.35,293.24,90,84,1.49,IN,1698618867
303,lagunas,-5.2269,-75.6753,297.42,89,100,0.96,PE,1698618867
304,paita,-5.0892,-81.1144,294.78,77,100,8.57,PE,1698618868
305,dampit,-8.2116,112.7493,295.64,77,93,1.51,ID,1698618868
306,yugorsk,61.3133,63.3319,268.09,45,100,4.17,RU,1698618868
307,norristown,40.1215,-75.3399,285.66,90,100,2.57,US,1698618869
308,racine,42.7495,-88.0751,277.29,78,100,3.09,US,1698618869
309,tralee,52.2704,-9.7026,281.65,90,95,1.65,IE,1698618869
310,mugumu,-1.85,34.7,290.81,76,29,1.06,TZ,1698618870
311,laascaanood,8.4774,47.3597,296.04,78,90,4.31,SO,1698618870
312,shubarshi,48.5872,57.1869,283.14,63,26,10.2,KZ,1698618870
313,tura,25.5198,90.2201,292.07,93,8,1.56,IN,1698618870
314,bridge city,30.0208,-93.8457,302.03,63,0,5.14,US,1698618871
315,al ghayzah,16.2079,52.176,298.35,75,70,2.56,YE,1698618871
316,nuuk,64.1835,-51.7216,273.49,69,100,13.89,GL,1698618846
317,floro,61.5996,5.0328,276.12,38,0,2.57,NO,1698618872
318,arno,60.1167,18.6333,275.81,69,100,2.84,SE,1698618872
319,vila do maio,15.1333,-23.2167,298.59,70,92,3.16,CV,1698618872
320,mae ramat,16.984,98.5166,296.33,97,89,0.9,TH,1698618872
321,lerik,38.7726,48.4128,280.95,75,68,1.16,AZ,1698618873
322,arraial do cabo,-22.9661,-42.0278,297.39,88,98,9.7,BR,1698618873
323,bochum,51.4833,7.2167,285.38,71,81,1.79,DE,1698618874
324,zainsk,55.3195,52.0694,273.66,96,100,6.82,RU,1698618874
325,ceeldheer,3.8488,47.1806,297.42,87,100,1.57,SO,1698618614
326,pacific grove,36.6177,-121.9166,295.11,31,0,4.12,US,1698618874
327,al qusayr,34.5091,36.5798,296.02,41,100,1.97,SY,1698618874
328,sillanwali,31.8261,72.5398,295.59,36,84,1.71,PK,1698618875
329,kinablangan,7.6947,126.5503,299.76,79,47,1.47,PH,1698618875
330,ulaangom,49.9811,92.0667,269.41,75,86,1.62,MN,1698618875
331,verkhniye sergi,56.6469,59.5556,269.67,94,100,4.75,RU,1698618876
332,butterworth,5.3991,100.3638,297.5,97,20,2.68,MY,1698618876
333,kolpny,52.2282,37.0368,274.5,82,81,1.47,RU,1698618877
334,banda aceh,5.5577,95.3222,298.89,83,95,1.34,ID,1698618877
335,springfield,37.2153,-93.2982,275.67,94,100,6.26,US,1698618679
336,colon,9.3592,-79.9014,300.55,82,95,0.86,PA,1698618585
337,macau,22.2006,113.5461,298.0,83,40,3.6,MO,1698618726
338,kharp,66.8014,65.8081,259.2,98,100,1.41,RU,1698618797
339,villa de reyes,21.8,-100.9333,299.1,32,7,5.22,MX,1698618878
340,leh,34.1667,77.5833,274.68,34,99,1.48,IN,1698618775
341,ati,13.2154,18.3353,303.04,15,2,3.74,TD,1698618879
342,sarikei,2.1167,111.5167,297.09,99,100,1.18,MY,1698618879
343,kalach,50.4258,41.0261,277.17,88,25,3.12,RU,1698618879
344,phan thiet,10.9333,108.1,298.03,90,31,2.2,VN,1698618880
345,atafu village,-8.5421,-172.5159,302.16,70,97,4.84,TK,1698618880
346,turtas,58.9417,69.1325,266.88,87,99,4.4,RU,1698618741
347,tazacorte,28.629,-17.9293,294.9,82,20,3.6,ES,1698618880
348,port douglas,-16.4833,145.4667,297.98,60,99,4.98,AU,1698618790
349,kavaratti,10.5669,72.642,301.09,70,99,0.25,IN,1698618881
350,kayangel,8.0823,134.7173,301.34,74,22,3.3,PW,1698618881
351,mammoth lakes,37.6485,-118.9721,282.12,14,0,3.09,US,1698618781
352,coahuayana de hidalgo,18.7,-103.6583,302.0,75,95,2.45,MX,1698618881
353,genhe,50.7833,121.5167,266.83,46,0,2.79,CN,1698618790
354,lamu,-2.2717,40.902,298.27,84,7,4.2,KE,1698618882
355,somerset,40.5668,-74.5496,284.85,90,100,1.54,US,1698618601
356,mersa matruh,31.3525,27.2453,295.76,77,19,3.15,EG,1698618882
357,berezovyy,51.6667,135.7,272.78,71,72,0.17,RU,1698618882
358,pariaman,-0.619,100.12,298.18,89,100,1.52,ID,1698618882
359,fernley,39.608,-119.2518,282.41,15,0,2.66,US,1698618883
360,alofi,-19.0595,-169.9187,301.09,69,87,6.69,NU,1698618883
361,itupiranga,-5.1347,-49.3267,302.33,41,69,0.53,BR,1698618883
362,caleta de carquin,-11.0925,-77.6267,293.42,84,78,5.27,PE,1698618883
363,sao joao da barra,-21.6403,-41.0511,299.2,87,83,10.25,BR,1698618884
364,buka,40.8108,69.1986,291.35,38,33,2.46,UZ,1698618884
365,zaysan,47.4667,84.8667,279.18,98,100,1.27,KZ,1698618884
366,gracemere,-23.4333,150.45,297.1,53,79,1.54,AU,1698618884
367,samana,19.2056,-69.3369,302.13,90,100,3.11,DO,1698618885
368,nuku'alofa,-21.1333,-175.2,300.34,78,20,7.2,TO,1698618885
369,kolonia,50.9333,6.95,285.74,77,58,5.6,DE,1698618588
370,lambunao,11.0556,122.4759,298.28,89,55,2.77,PH,1698618885
371,mena,51.5217,32.2157,279.33,94,69,3.88,UA,1698618885
372,brandon,27.9378,-82.2859,300.93,68,0,3.6,US,1698618886
373,hryhoriopol,47.1536,29.2964,286.64,51,23,3.06,MD,1698618886
374,hilo,19.7297,-155.09,301.11,71,20,5.14,US,1698618677
375,kuta,-8.7233,115.1723,298.71,94,20,1.03,ID,1698618886
376,verkhnevilyuysk,63.4453,120.3167,260.95,93,65,2.13,RU,1698618886
377,robertsport,6.7533,-11.3686,300.05,82,19,3.82,LR,1698618887
378,ylitornio,66.3089,23.6773,264.26,90,73,0.62,FI,1698618888
379,cole harbour,44.6724,-63.4751,280.35,67,100,1.34,CA,1698618888
380,abaza,52.655,90.0928,270.51,62,100,1.06,RU,1698618888
381,kiunga,-6.1219,141.2906,297.52,96,98,1.09,PG,1698618888
382,ormara,25.2088,64.6357,299.67,75,2,2.47,PK,1698618889
383,queenstown,-31.8976,26.8753,277.6,83,28,6.76,ZA,1698618889
384,sept-iles,50.2001,-66.3821,276.0,60,20,6.69,CA,1698618889
385,diamantina,-18.2494,-43.6003,295.82,68,91,1.99,BR,1698618889
386,bowen,-20.0167,148.2333,297.6,55,16,5.18,AU,1698618889
387,uturoa,-16.7333,-151.4333,299.31,79,15,5.97,PF,1698618890
388,jalapa,19.5333,-96.9167,291.41,93,89,1.44,MX,1698618720
389,dedovichi,57.5517,29.9502,273.27,78,100,4.31,RU,1698618890
390,broome,42.2506,-75.833,281.29,96,100,4.12,US,1698618891
391,trairi,-3.2778,-39.2689,299.5,77,31,4.02,BR,1698618834
392,kawerau,-38.1,176.7,288.42,78,100,1.34,NZ,1698618891
393,susuman,62.7833,148.1667,255.36,99,95,0.45,RU,1698618892
394,kyaikkami,16.08,97.5675,299.23,87,97,3.23,MM,1698618892
395,curumani,9.1999,-73.5427,298.83,89,97,1.01,CO,1698618892
396,iwaki,37.05,140.8833,287.34,78,24,0.45,JP,1698618892
397,alice springs,-23.7,133.8833,298.9,10,41,0.0,AU,1698618893
398,puerto armuelles,8.2833,-82.8667,300.42,75,34,4.47,PA,1698618885
399,ambon,-3.6954,128.1814,298.23,88,20,3.6,ID,1698618893
400,luena,-11.7833,19.9167,296.25,64,0,2.57,AO,1698618893
401,yanbu,24.0891,38.0637,300.17,89,0,1.03,SA,1698618893
402,nacozari de garcia,30.3742,-109.6908,296.83,26,0,4.79,MX,1698618894
403,ghadamis,30.1337,9.5007,298.86,19,98,4.09,LY,1698618894
404,portage la prairie,49.9728,-98.2926,270.31,60,48,5.29,CA,1698618679
405,hotan,37.0997,79.9269,286.82,20,71,2.11,CN,1698618895
406,bardai,11.65,7.2333,298.32,22,70,3.58,NG,1698618895
407,anacapri,40.5558,14.2136,291.42,71,0,6.69,IT,1698618896
408,mittenwalde,52.2601,13.5395,285.97,86,0,7.2,DE,1698618896
409,bafoulabe,13.8065,-10.8321,300.3,63,40,2.26,ML,1698618896
410,ambovombe,-25.1667,46.0833,294.97,83,0,2.64,MG,1698618896
411,bereznik,62.8551,42.7072,267.48,97,83,1.67,RU,1698618897
412,albertina,-22.2008,-46.6158,293.2,93,100,2.24,BR,1698618897
413,mirnyy,62.5353,113.9611,263.47,94,100,2.95,RU,1698618897
414,klyuchi,52.2667,79.1667,272.69,92,100,2.45,RU,1698618897
415,bom jardim,-7.7958,-35.5872,294.23,80,88,3.13,BR,1698618898
416,rawah,34.4816,41.9093,298.44,31,100,1.49,IQ,1698618898
417,turan,16.0678,108.2208,297.14,94,75,4.12,VN,1698618898
418,nadi,-17.8,177.4167,303.15,62,20,5.14,FJ,1698618898
419,novo aripuana,-5.1206,-60.3797,304.94,36,57,0.96,BR,1698618899
420,suileng,47.25,127.0833,278.65,70,100,3.0,CN,1698618899
421,cromwell,41.5951,-72.6454,281.91,95,100,3.6,US,1698618899
422,ta`u,-14.2336,-169.5144,300.22,81,53,7.06,AS,1698618899
423,chinde,26.8418,88.0763,286.75,74,0,2.1,NP,1698618899
424,salumbar,24.1333,74.05,295.26,41,79,1.26,IN,1698618900
425,sabha,27.0377,14.4283,296.27,26,3,4.75,LY,1698618900
426,hasaki,35.7333,140.8333,285.37,64,0,8.18,JP,1698618900
427,slave lake,55.2834,-114.769,274.14,64,0,1.54,CA,1698618900
428,nguigmi,14.2495,13.1092,302.08,23,47,4.85,NE,1698618901
429,nowshahr,36.649,51.496,294.12,83,0,6.17,IR,1698618901
430,arauca,7.0847,-70.7591,299.13,89,20,0.0,CO,1698618706
431,severo-yeniseyskiy,60.3725,93.0408,257.91,99,93,0.89,RU,1698618901
432,brookings,44.3114,-96.7984,272.02,76,100,7.2,US,1698618878
433,chebba,35.2372,11.115,297.56,79,100,5.76,TN,1698618902
434,naze,28.3667,129.4833,292.66,69,26,3.21,JP,1698618902
435,verkhovazh'ye,60.7472,42.0465,269.9,94,84,2.12,RU,1698618903
436,happy valley-goose bay,53.3168,-60.3315,274.32,51,75,9.77,CA,1698618903
437,inhambane,-23.865,35.3833,293.91,78,100,9.23,MZ,1698618904
438,ilhabela,-23.7781,-45.3581,296.75,98,100,2.25,BR,1698618904
439,georgetown,5.4112,100.3354,297.48,97,20,2.68,MY,1698618905
440,nouadhibou,20.931,-17.0347,294.14,88,0,6.17,MR,1698618905
441,westport,41.1415,-73.3579,282.76,89,100,5.14,US,1698618905
442,boguchany,58.3814,97.4531,265.29,79,14,1.34,RU,1698618746
443,cu chi,10.9667,106.4667,297.16,95,72,2.1,VN,1698618906
444,tsengel,49.4783,100.8894,269.12,89,100,0.76,MN,1698618906
445,lembang,-6.8117,107.6175,290.34,78,66,1.28,ID,1698618906
446,la cruz,23.9167,-106.9,300.66,67,0,3.94,MX,1698618907
447,greymouth,-42.4667,171.2,289.24,41,85,2.88,NZ,1698618907
448,holualoa,19.6228,-155.9522,300.67,69,20,5.66,US,1698618907
449,labytnangi,66.6572,66.4183,258.53,98,98,1.53,RU,1698618908
450,dingli,35.8614,14.3822,294.24,83,0,3.6,MT,1698618908
451,padang,-0.9492,100.3543,298.18,88,100,1.2,ID,1698618704
452,badiyah,22.45,58.8,297.77,65,96,0.45,OM,1698618909
453,lompoc,34.6391,-120.4579,295.99,26,0,4.63,US,1698618909
454,pandan,14.0453,124.1694,300.51,81,81,6.17,PH,1698618909
455,sao gabriel da cachoeira,-0.1303,-67.0892,300.31,69,100,1.28,BR,1698618909
456,zeya,53.75,127.2667,275.09,56,100,1.0,RU,1698618910
457,port saint john's,-31.6229,29.5448,288.04,60,100,3.03,ZA,1698618910
458,levuka,50.1834,-105.4011,271.99,86,71,5.28,CA,1698618910
459,island harbour,50.724,-1.2758,285.77,78,27,3.13,GB,1698618911
460,patacamaya,-17.2333,-67.9167,288.06,17,58,3.35,BO,1698618911
461,santo antonio do ica,-3.1022,-67.9397,301.49,67,98,2.12,BR,1698618912
462,mili,6.0815,171.735,301.51,78,74,6.23,MH,1698618912
463,smithers,54.7804,-127.1743,273.33,64,75,1.03,CA,1698618912
464,kaka,37.3482,59.6143,293.36,34,18,0.84,TM,1698618912
465,aral,40.5156,81.2636,285.47,30,23,1.32,CN,1698618912
466,akrehamn,59.2667,5.1833,281.28,49,75,5.14,NO,1698618913
467,sorong,-0.8833,131.25,299.01,89,49,2.84,ID,1698618913
468,aras-asan,8.8908,126.3033,299.68,81,57,1.66,PH,1698618913
469,chiredzi,-21.05,31.6667,289.08,83,100,4.91,ZW,1698618914
470,argungu,12.7433,4.5269,302.67,19,4,3.56,NG,1698618914
471,oum el bouaghi,35.8754,7.1135,292.31,37,94,4.81,DZ,1698618914
472,cabo san lucas,22.8909,-109.9124,301.34,65,0,6.69,MX,1698618640
473,koch'ang,35.4333,126.7,286.4,85,48,1.15,KR,1698618677
474,buryn',51.1991,33.8352,278.85,92,43,2.98,UA,1698618915
475,thinadhoo,0.5333,72.9333,300.34,79,98,7.6,MV,1698618915
476,san andres,12.5847,-81.7006,302.16,84,20,1.03,CO,1698618915
477,kavieng,-2.5744,150.7967,299.98,84,95,6.66,PG,1698618915
478,nueva gerona,21.8833,-82.8,300.66,69,1,2.61,CU,1698618916
479,barra de santo antonio,-9.4047,-35.5072,297.75,76,100,3.92,BR,1698618916
480,kargasok,59.0556,80.8572,262.02,94,56,1.34,RU,1698618736
481,tremonton,41.7119,-112.1655,278.28,38,1,4.02,US,1698618917
482,east ballina,-28.8667,153.5833,294.31,59,1,2.78,AU,1698618917
483,palmerston north,-40.35,175.6167,289.92,65,99,1.79,NZ,1698618917
484,mandera,3.9366,41.867,296.56,88,99,7.88,KE,1698618918
485,akureyri,65.6835,-18.0878,267.11,93,0,0.0,IS,1698618918
486,hobyo,5.3505,48.5268,296.86,95,100,2.15,SO,1698618918
487,vila franca do campo,37.7167,-25.4333,288.08,99,61,1.98,PT,1698618919
488,sungailiat,-1.85,106.1333,299.86,76,40,2.95,ID,1698618920
489,gobabis,-22.45,18.9667,292.11,22,3,5.5,NA,1698618920
490,mil'kovo,55.6078,37.7956,273.36,91,100,2.42,RU,1698618920
491,bogotol,56.2078,89.5342,264.27,94,5,2.22,RU,1698618921
492,al faw,29.9776,48.4741,294.15,42,99,2.62,IQ,1698618921
493,motygino,58.1831,94.7592,265.81,75,32,0.45,RU,1698618921
494,aioun,16.6614,-9.6149,306.81,18,38,2.74,MR,1698618922
495,siwa oasis,29.2041,25.5195,296.11,67,5,3.35,EG,1698618922
496,konce,41.4958,22.385,285.83,52,0,1.15,MK,1698618922
497,gebeit,21.0667,36.3167,297.22,79,1,2.46,SD,1698618922
498,ifanadiana,-21.3,47.6333,292.86,95,91,0.21,MG,1698618923
499,mana,5.6592,-53.7767,300.36,83,78,6.15,GF,1698618923
500,west fargo,46.875,-96.9004,271.29,68,100,5.66,US,1698618923
501,sassandra,4.95,-6.0833,298.52,88,17,1.84,CI,1698618924
502,islamorada,24.9243,-80.6278,297.93,95,0,3.13,US,1698618924
503,tofol,5.3248,163.0078,304.03,70,75,3.09,FM,1698618924
504,canutama,-6.5339,-64.3831,304.71,44,89,1.78,BR,1698618925
505,amos,48.5669,-78.1162,273.58,96,100,0.66,CA,1698618925
506,podgornoye,51.735,39.1496,276.16,83,75,5.0,RU,1698618925
507,winslow,35.0242,-110.6974,287.25,19,0,5.14,US,1698618925
508,cerritos,33.8583,-118.0648,299.79,15,0,3.13,US,1698618658
509,kismayo,-0.3582,42.5454,299.63,81,44,4.77,SO,1698618926
510,san andres tuxtla,18.45,-95.2167,297.88,80,7,2.22,MX,1698618777
511,lycksele,64.5954,18.6735,266.08,93,100,2.57,SE,1698618926
512,san antonio de pale,-1.4014,5.6325,299.56,82,8,3.94,GQ,1698618926
513,kingston,17.997,-76.7936,301.8,81,40,4.12,JM,1698618927
514,kishapu,-3.6167,33.8667,297.29,58,60,1.05,TZ,1698618927
515,chadron,42.8294,-102.9999,272.81,49,40,9.77,US,1698618927
516,flagstaff,35.1981,-111.6513,281.22,29,0,6.17,US,1698618696
517,uzgen,40.7699,73.3007,289.72,38,94,2.09,KG,1698618927
518,nabire,-3.3667,135.4833,299.46,85,85,0.89,ID,1698618928
519,rio tuba,8.5061,117.4317,301.26,78,70,5.43,PH,1698618928
520,villa gesell,-37.2639,-56.973,287.44,58,100,6.78,AR,1698618822
521,marsabit,2.3284,37.9899,291.22,82,60,1.39,KE,1698618774
522,itoman,26.1247,127.6694,295.23,67,20,3.09,JP,1698618929
523,hanceville,34.0607,-86.7675,300.19,57,0,1.6,US,1698618705
524,oltinko'l,40.8011,72.1634,290.9,37,79,1.39,UZ,1698618929
525,tselinnoye,53.0833,85.6667,269.2,85,97,0.86,RU,1698618930
526,balurghat,25.2167,88.7667,293.58,79,0,1.86,IN,1698618930
527,twon-brass,4.3151,6.2418,300.08,81,98,2.71,NG,1698618930
528,mejit,10.2753,170.8646,301.23,81,85,9.66,MH,1698618930
529,mata-utu,-13.2816,-176.1745,301.38,74,30,1.52,WF,1698618930
530,puerto leguizamo,-0.1934,-74.7819,297.11,88,100,0.89,CO,1698618931
531,polyarnyy,69.1989,33.4478,266.67,92,100,2.6,RU,1698618931
532,freetown,8.484,-13.2299,300.99,83,20,7.2,SL,1698618919
533,zapolyarnyy,69.4154,30.8136,265.75,96,100,1.5,RU,1698618731
534,el porvenir,13.7617,-87.3458,299.78,94,99,0.93,HN,1698618932
535,saint-joseph,-21.3667,55.6167,296.95,84,37,4.35,RE,1698618932
536,markovo,57.3206,107.0881,266.32,76,100,1.99,RU,1698618932
537,kangding,30.0513,101.9603,279.53,52,40,1.84,CN,1698618932
538,san carlos centro,-31.7286,-61.0919,291.63,79,77,4.69,AR,1698618933
539,klaksvik,62.2266,-6.589,278.66,71,100,10.28,FO,1698618933
540,borogontsy,62.6683,131.1683,260.31,97,100,1.9,RU,1698618933
541,liuhe,42.2401,125.7172,280.72,86,65,3.16,CN,1698618933
542,rio grande,-32.035,-52.0986,294.79,94,51,3.73,BR,1698618706
543,pertek,38.8663,39.3268,282.91,53,100,1.27,TR,1698618934
544,coari,-4.085,-63.1414,303.98,39,13,1.19,BR,1698618935
545,karpinsk,59.7654,60.0085,266.27,92,100,4.14,RU,1698618935
546,hadithah,34.1397,42.3781,298.68,35,100,1.04,IQ,1698618935
547,sochi,43.6,39.7303,288.2,68,96,2.83,RU,1698618935
548,sao tome,0.3365,6.7273,299.62,86,17,1.8,ST,1698618936
549,geraldton,-28.7667,114.6,287.38,88,41,3.6,AU,1698618936
550,markaz-e hukumat-e darweshan,31.1323,64.1934,292.96,38,75,1.68,AF,1698618936
551,vanino,49.0869,140.2543,277.0,52,29,0.79,RU,1698618936
552,anna regina,7.2644,-58.5077,301.22,78,99,4.11,GY,1698618936
553,n'zeto,-7.2312,12.8666,298.8,88,57,4.72,AO,1698618937
554,egilsstadir,65.2653,-14.3948,274.1,93,75,1.54,IS,1698618937
555,pathein,16.7833,94.7333,296.65,95,45,2.4,MM,1698618937
556,chibougamau,49.9168,-74.3659,271.94,69,100,2.57,CA,1698618937
