City_ID,City,Lat,Lng,Max Temp,Humidity,Cloudiness,Wind Speed,Country,Date
0,atbara,17.7022,33.9864,26.44,50,58,3.86,SD,1700957217
1,haparanda,65.8355,24.1368,-3.97,97,99,1.75,SE,1700957217
2,vuktyl,63.8567,57.3094,-12.16,93,100,1.34,RU,1700957218
3,vila velha,-20.3297,-40.2925,23.97,71,75,5.14,BR,1700957218
4,la foa,-21.7108,165.8276,25.32,58,89,3.3,NC,1700957219
5,port-aux-francais,-49.35,70.2167,3.6,75,20,15.85,TF,1700957219
6,port mathurin,-19.6833,63.4167,24.52,71,31,7.01,MU,1700957220
7,edinburgh of the seven seas,-37.0676,-12.3116,14.17,85,17,13.05,SH,1700957220
8,bethel,41.3712,-73.414,1.38,69,0,0.0,US,1700957219
9,puerto natales,-51.7236,-72.4875,5.92,88,55,8.41,CL,1700957221
10,san angelo,31.4638,-100.437,12.52,85,100,0.89,US,1700956930
11,iqaluit,63.7506,-68.5145,-13.15,78,75,5.14,CA,1700956978
12,pathein,16.7833,94.7333,21.08,87,59,2.56,MM,1700956637
13,tadine,-21.55,167.8833,24.14,64,62,4.79,NC,1700957222
14,kuala lipis,4.1842,102.0468,22.89,100,99,0.34,MY,1700957223
15,udachny,66.4167,112.4,-17.75,96,100,7.9,RU,1700957206
16,port lincoln,-34.7333,135.8667,17.43,66,100,3.25,AU,1700957223
17,lihue,21.9789,-159.3672,27.58,78,7,3.8,US,1700956953
18,ouani,-12.1322,44.4258,27.0,76,100,2.5,KM,1700957224
19,crane,31.3974,-102.3501,12.94,76,50,3.55,US,1700957225
20,port elizabeth,-33.918,25.5701,19.16,88,100,1.03,ZA,1700957009
21,egilsstadir,65.2653,-14.3948,1.82,88,97,2.5,IS,1700957225
22,vorgashor,67.5833,63.95,-10.78,89,100,2.81,RU,1700957226
23,jamestown,42.097,-79.2353,1.8,62,75,0.0,US,1700957194
24,horsham,51.064,-0.3272,1.81,70,0,1.03,GB,1700957187
25,nova sintra,14.8667,-24.7167,22.57,71,11,8.75,CV,1700957227
26,susuman,62.7833,148.1667,-24.96,99,100,2.41,RU,1700957227
27,college,64.8569,-147.8028,-9.03,84,40,0.0,US,1700956416
28,hell-ville,-13.4,48.2667,27.4,73,96,1.55,MG,1700957228
29,blackmans bay,-43.0167,147.3167,13.07,96,100,6.26,AU,1700957229
30,fort bragg,35.139,-79.006,6.91,62,0,2.06,US,1700957230
31,northam,51.0333,-4.2167,8.14,85,100,3.32,GB,1700957230
32,upata,8.0086,-62.3989,22.88,96,100,2.44,VE,1700957230
33,badger,64.8,-147.5333,-11.12,89,0,1.54,US,1700957231
34,adamstown,-25.066,-130.1015,21.63,84,100,11.58,PN,1700957231
35,lebu,-37.6167,-73.65,11.42,88,15,8.28,CL,1700957232
36,papatowai,-46.5619,169.4708,15.57,64,64,4.3,NZ,1700957232
37,chernyshevskiy,63.0128,112.4714,-26.53,97,97,1.14,RU,1700957232
38,sinop,41.7711,34.8709,11.68,73,96,10.03,TR,1700957233
39,kodinsk,58.6881,99.1844,-23.17,99,10,1.2,RU,1700957233
40,ust'-ilimsk,58.0006,102.6619,-22.93,100,88,1.01,RU,1700957234
41,tyukhtet,56.5389,89.3011,-7.25,93,100,3.52,RU,1700957234
42,hirara,24.8,125.2833,22.87,80,100,9.39,JP,1700957235
43,kapoeta,4.7717,33.5903,24.92,64,30,1.06,SS,1700957236
44,santa isabel,-23.3156,-46.2214,16.84,94,100,1.77,BR,1700957019
45,mar del plata,-38.0023,-57.5575,23.38,54,74,9.39,AR,1700957237
46,zag,46.9441,99.165,-13.98,87,9,2.74,MN,1700957237
47,petropavlovsk-kamchatsky,53.0452,158.6483,-6.42,69,20,11.62,RU,1700956662
48,karratha,-20.7377,116.8463,30.49,41,7,4.66,AU,1700957238
49,ribeira grande,38.5167,-28.7,20.43,96,100,5.81,PT,1700957238
50,taoudenni,22.6783,-3.9836,17.65,21,0,4.09,ML,1700957239
51,kongsvinger,60.1905,11.9977,-7.52,81,8,2.08,NO,1700957239
52,grytviken,-54.2811,-36.5092,-0.07,79,27,3.89,GS,1700957240
53,isafjordur,66.0755,-23.124,3.94,97,100,2.73,IS,1700957240
54,arua,3.0201,30.9111,17.64,93,85,4.6,UG,1700957240
55,prince rupert,54.3161,-130.3201,6.83,100,100,1.03,CA,1700956954
56,kodiak,57.79,-152.4072,5.73,100,100,3.09,US,1700957241
57,bontang,0.1333,117.5,26.37,85,100,0.72,ID,1700957242
58,joao neiva,-19.7575,-40.3856,21.89,71,82,3.53,BR,1700957242
59,luderitz,-26.6481,15.1594,18.6,48,3,5.54,NA,1700957243
60,fort saskatchewan,53.7168,-113.2187,0.55,74,42,3.58,CA,1700957243
61,mhamid,29.82,-5.72,13.53,30,99,1.82,MA,1700957244
62,labrador city,52.9463,-66.9114,-16.05,27,100,7.72,CA,1700957244
63,yermentau,51.6214,73.1069,-2.06,60,98,6.32,KZ,1700957244
64,la passe,45.5549,-0.8967,0.13,79,45,3.46,FR,1700956656
65,xingcheng,40.6167,120.7167,-1.42,48,0,3.95,CN,1700957245
66,ushuaia,-54.8,-68.3,5.3,97,86,2.41,AR,1700957246
67,shingu,33.7333,135.9833,11.34,64,17,1.08,JP,1700957246
68,saipan,15.1355,145.701,28.39,89,100,9.26,MP,1700957197
69,albany,42.6001,-73.9662,0.91,67,98,0.45,US,1700957247
70,mutuali,-14.8706,37.0044,24.08,58,68,1.74,MZ,1700957248
71,dongsheng,39.8161,109.9776,-2.27,41,58,6.7,CN,1700957248
72,fort mcmurray,56.7268,-111.381,-7.72,73,25,2.8,CA,1700957249
73,mbandaka,0.0487,18.2603,21.38,97,96,1.6,CD,1700957249
74,whitefish,48.4111,-114.3376,-1.24,80,0,0.0,US,1700957132
75,kristiansund,63.1115,7.732,2.36,87,75,2.06,NO,1700957251
76,thunder bay,48.4001,-89.3168,-1.38,32,100,4.56,CA,1700957251
77,margaret river,-33.95,115.0667,21.95,48,84,7.24,AU,1700957252
78,ponta delgada,37.7333,-25.6667,19.4,94,75,6.17,PT,1700957252
79,whitehorse,60.7161,-135.0538,1.17,86,100,3.58,CA,1700956709
80,suoyarvi,62.0833,32.35,-14.43,97,100,1.13,RU,1700957112
81,wailua homesteads,22.0669,-159.378,26.44,81,75,4.63,US,1700957253
82,corinto,37.9407,22.9573,12.84,70,48,3.58,GR,1700957254
83,tarawa,1.419,172.984,32.05,66,40,2.57,KI,1700957254
84,puerto princesa,9.7392,118.7353,27.97,82,69,4.22,PH,1700957255
85,hawaiian paradise park,19.5933,-154.9731,26.13,79,100,3.09,US,1700957255
86,san luis de la loma,17.2706,-100.8939,26.1,77,0,0.8,MX,1700956694
87,jose maria morelos,23.3952,-103.8984,13.46,28,17,3.04,MX,1700957256
88,beira,-19.8436,34.8389,25.49,91,45,2.67,MZ,1700957256
89,houghton,47.1219,-88.569,0.71,51,100,4.63,US,1700957257
90,invercargill,-46.4,168.35,14.45,73,63,1.34,NZ,1700957257
91,hovd,48.0056,91.6419,-7.38,66,65,2.34,MN,1700957258
92,bilibino,68.0546,166.4372,-12.5,91,100,2.33,RU,1700957258
93,iskateley,67.6803,53.1512,-21.53,99,85,2.11,RU,1700957060
94,baker city,44.7749,-117.8344,1.84,55,0,1.54,US,1700957259
95,itaituba,-4.2761,-55.9836,27.55,60,93,1.21,BR,1700957260
96,yellowknife,62.456,-114.3525,-25.14,96,11,2.28,CA,1700957260
97,sur,22.5667,59.5289,24.6,66,6,2.58,OM,1700957261
98,enewetak,11.3474,162.3373,27.9,76,35,9.53,MH,1700957261
99,waitangi,-43.9535,-176.5597,16.01,96,100,6.42,NZ,1700957262
100,mermoz boabab,14.7065,-17.4758,23.31,55,0,6.44,SN,1700957262
101,sitka,57.0531,-135.33,8.94,87,100,1.54,US,1700957263
102,gokceada,40.2011,25.909,13.6,72,82,15.83,TR,1700957263
103,geraldton,-28.7667,114.6,22.23,78,100,2.57,AU,1700957264
104,thompson,55.7435,-97.8558,-6.46,92,100,4.12,CA,1700957264
105,afaahiti,-17.75,-149.2833,29.93,75,92,8.36,PF,1700957265
106,codrington,-38.2667,141.9667,14.29,82,100,6.74,AU,1700957265
107,uturoa,-16.7333,-151.4333,26.67,77,80,10.04,PF,1700957265
108,diebougou,10.9667,-3.25,30.32,30,100,1.62,BF,1700957266
109,taltal,-25.4,-70.4833,17.77,76,23,1.62,CL,1700957266
110,rongelap,11.1635,166.8941,27.84,80,48,8.0,MH,1700957267
111,yanam,16.7333,82.2167,24.68,77,14,3.45,IN,1700957267
112,fuglafjordur,62.244,-6.814,5.26,84,99,5.39,FO,1700957268
113,freeport,40.6576,-73.5832,4.42,63,0,2.06,US,1700957268
114,west island,-12.1568,96.8225,25.99,78,100,7.2,CC,1700957269
115,kone,-21.0595,164.8658,27.38,55,97,0.96,NC,1700957269
116,saldanha,-33.0117,17.9442,16.31,84,5,5.89,ZA,1700957269
117,carutapera,-1.195,-46.02,27.03,75,8,3.69,BR,1700957270
118,kiffa,16.6166,-11.4045,22.92,15,0,4.04,MR,1700957270
119,toliara,-23.35,43.6667,24.67,90,16,1.18,MG,1700957271
120,itoman,26.1247,127.6694,22.21,68,75,5.14,JP,1700957271
121,maracacume,-2.0428,-45.9592,25.81,76,41,2.25,BR,1700956997
122,ketchikan,55.3422,-131.6461,7.99,100,100,2.57,US,1700957272
123,cidreira,-30.1811,-50.2056,18.96,70,23,6.55,BR,1700957273
124,atar,20.5169,-13.0499,19.57,19,0,3.89,MR,1700957273
125,ilulissat,69.2167,-51.1,7.01,57,100,6.69,GL,1700957274
126,qaqortoq,60.7167,-46.0333,-0.34,95,100,2.99,GL,1700956682
127,salinopolis,-0.6136,-47.3561,27.51,76,29,4.73,BR,1700957178
128,can,40.0333,27.0524,14.98,82,64,11.6,TR,1700957275
129,xilin hot,43.9667,116.0333,-14.09,86,88,2.54,CN,1700957275
130,mata-utu,-13.2816,-176.1745,28.8,73,83,4.89,WF,1700957276
131,longyearbyen,78.2186,15.6401,-10.85,87,91,0.54,SJ,1700957276
132,inarajan village,13.2736,144.7484,31.54,86,37,8.14,GU,1700957277
133,posto fiscal rolim de moura,-13.0833,-62.2667,23.44,96,93,1.36,BR,1700957277
134,sake,-1.5736,29.045,16.84,96,100,0.44,CD,1700957277
135,piton saint-leu,-21.2196,55.3151,20.06,68,0,3.09,RE,1700957278
136,black river,18.0264,-77.8487,26.65,80,83,1.03,JM,1700957278
137,aasiaat,68.7098,-52.8699,0.44,85,100,3.96,GL,1700957279
138,bredasdorp,-34.5322,20.0403,14.75,89,49,1.5,ZA,1700957279
139,xiahu,26.6106,119.9483,15.13,75,25,2.74,CN,1700957280
140,zhezqazghan,47.7833,67.7667,-0.42,56,100,3.46,KZ,1700957280
141,civitavecchia,42.0933,11.7967,4.9,52,0,3.0,IT,1700957281
142,vilyuchinsk,52.9306,158.4028,-4.86,71,19,11.54,RU,1700957281
143,taksimo,56.3444,114.8794,-26.04,93,62,0.36,RU,1700957282
144,avarua,-21.2078,-159.775,27.03,65,100,10.29,CK,1700957282
145,atafu village,-8.5421,-172.5159,29.36,71,93,4.52,TK,1700957283
146,olonkinbyen,70.9221,-8.7187,-2.19,71,7,4.17,SJ,1700957283
147,wad medani,14.4012,33.5199,28.63,28,4,4.51,SD,1700957284
148,hermanus,-34.4187,19.2345,16.23,78,36,3.57,ZA,1700957285
149,nevsehir,38.9167,34.6667,8.56,71,75,4.63,TR,1700957285
150,dayr hafir,36.1569,37.7078,13.01,71,47,3.75,SY,1700957286
151,constantia,44.1833,28.65,2.61,96,100,15.92,RO,1700957007
152,morehead city,34.7229,-76.726,9.46,82,100,7.72,US,1700957242
153,anadyr,64.75,177.4833,-0.72,100,75,9.0,RU,1700957287
154,jalqani,12.4486,34.2186,28.93,31,4,2.91,SD,1700957288
155,alaghsas,17.0187,8.0168,24.74,13,100,3.32,NE,1700957288
156,sinabang,2.4803,96.3801,24.67,90,100,2.55,ID,1700957289
157,nabire,-3.3667,135.4833,27.41,86,93,1.09,ID,1700957289
158,alice springs,-23.7,133.8833,31.75,29,100,4.12,AU,1700957042
159,tolanaro,-25.0319,46.9987,22.39,91,2,4.92,MG,1700957291
160,nuuk,64.1835,-51.7216,1.34,75,100,17.49,GL,1700957180
161,kailua-kona,19.6406,-155.9956,29.17,75,40,5.66,US,1700957292
162,fortuna,40.5982,-124.1573,13.29,67,0,0.0,US,1700957292
163,hadibu,12.65,54.0333,25.3,78,12,3.49,YE,1700957293
164,stanley,54.868,-1.6985,0.03,92,20,1.03,GB,1700957063
165,zavodoukovsk,56.5042,66.5515,-0.08,98,100,3.28,RU,1700957294
166,lionel town,17.8101,-77.2406,25.29,89,87,3.02,JM,1700957294
167,guerrero negro,27.9769,-114.0611,19.22,60,13,4.59,MX,1700957233
168,miri,4.4148,114.0089,25.89,91,100,1.61,MY,1700957295
169,vikulovo,56.8167,70.6107,0.47,98,100,4.2,RU,1700957296
170,buchanan,5.8808,-10.0467,25.86,84,97,2.47,LR,1700957296
171,luis correia,-2.8792,-41.6669,27.14,76,12,6.2,BR,1700957297
172,sisimiut,66.9395,-53.6735,-3.08,79,16,4.82,GL,1700957297
173,coquimbo,-29.9533,-71.3436,15.16,83,10,2.41,CL,1700957298
174,nynashamn,58.9034,17.9479,-3.83,77,94,7.99,SE,1700957298
175,callao,-12.0667,-77.15,21.51,73,20,5.66,PE,1700957298
176,punta arenas,-53.15,-70.9167,7.14,81,33,13.12,CL,1700957299
177,east london,-33.0153,27.9116,20.73,92,100,4.0,ZA,1700957299
178,siparia,10.1333,-61.5,25.64,86,57,4.01,TT,1700957300
179,porto belo,-27.1578,-48.5531,21.97,73,74,2.31,BR,1700957004
180,lompoc,34.6391,-120.4579,19.32,57,0,2.24,US,1700957301
181,kemijarvi,66.7131,27.4306,-9.19,94,100,1.98,FI,1700957301
182,rio grande,-32.035,-52.0986,18.06,76,20,4.77,BR,1700957301
183,haimen,23.1935,116.6142,17.93,75,0,3.16,CN,1700957302
184,fada,9.5667,8.3,22.14,74,63,0.71,NG,1700957302
185,mount isa,-20.7333,139.5,29.87,48,89,2.06,AU,1700957303
186,youhao,47.8667,128.8333,-17.52,90,98,1.24,CN,1700957303
187,antofagasta,-23.65,-70.4,16.77,81,44,2.6,CL,1700957304
188,swakopmund,-22.6833,14.5333,16.1,88,4,1.94,NA,1700957305
189,barvinkove,48.9097,37.0205,1.17,99,100,6.07,UA,1700957305
190,xichang,27.8964,102.2634,7.66,89,4,0.84,CN,1700957305
191,zaozersk,69.4005,32.4476,-8.29,95,99,0.67,RU,1700957306
192,puerto ayora,-0.7393,-90.3518,24.75,92,47,2.68,EC,1700957306
193,utrik,11.2278,169.8474,27.36,73,55,7.94,MH,1700957307
194,port macquarie,-31.4333,152.9167,27.72,55,83,1.32,AU,1700957302
195,lensk,60.7253,114.9278,-29.48,100,99,1.52,RU,1700957198
196,georgetown,5.4112,100.3354,27.19,83,20,2.57,MY,1700957300
197,jabor,5.921,169.6434,28.34,81,72,8.21,MH,1700957308
198,hithadhoo,-0.6,73.0833,27.11,79,45,1.7,MV,1700957309
199,al hufuf,25.3646,49.5653,18.19,88,79,0.0,SA,1700957310
200,barra de santo antonio,-9.4047,-35.5072,24.89,71,32,4.17,BR,1700957310
201,bure,10.7,37.0667,13.26,72,43,2.27,ET,1700957241
202,koutiala,12.3917,-5.4642,25.96,17,95,1.55,ML,1700957311
203,talnakh,69.4865,88.3972,-22.43,98,48,2.73,RU,1700957312
204,basco,20.4487,121.9702,24.84,78,100,10.05,PH,1700957312
205,crucecita,-28.95,-58.9833,22.09,63,95,3.11,AR,1700957313
206,puerto baquerizo moreno,-0.9,-89.6,24.43,81,82,6.31,EC,1700957313
207,six-fours-les-plages,43.0938,5.84,7.47,50,0,0.89,FR,1700957314
208,guarapari,-20.6667,-40.4975,23.27,77,94,3.09,BR,1700957314
209,narsingi,18.0333,78.4333,20.25,89,74,3.3,IN,1700957315
210,macapa,0.0389,-51.0664,27.62,74,73,5.23,BR,1700957315
211,sharypovo,55.5403,89.2008,-4.86,75,99,7.15,RU,1700957316
212,dabhol,17.6,73.1667,23.69,83,2,2.23,IN,1700957316
213,namibe,-15.1961,12.1522,23.78,83,98,3.44,AO,1700957317
214,buenos aires,-34.6132,-58.3772,23.94,74,0,5.66,AR,1700957162
215,dvurechensk,56.5982,61.0953,-1.79,92,100,2.97,RU,1700957318
216,kourou,5.1552,-52.6478,26.03,89,81,2.82,GF,1700957318
217,mount gambier,-37.8333,140.7667,14.56,76,99,4.7,AU,1700957319
218,inari,68.906,27.0288,-1.89,97,100,2.7,FI,1700957319
219,lamu,-2.2717,40.902,25.63,85,97,1.54,KE,1700957320
220,kapuskasing,49.4169,-82.4331,-1.17,59,99,5.38,CA,1700957320
221,likisa,-8.6695,125.6875,24.35,57,44,1.36,TL,1700957321
222,bela vista de goias,-16.9728,-48.9533,25.64,69,100,2.03,BR,1700957321
223,mirnyy,62.5353,113.9611,-28.76,68,90,3.13,RU,1700957322
224,port saint john's,-31.6229,29.5448,21.7,93,100,3.46,ZA,1700957322
225,arvayheer,46.2639,102.775,-6.53,78,100,6.77,MN,1700957323
226,kruisfontein,-34.0033,24.7314,14.16,88,74,1.02,ZA,1700957324
227,hastings,50.8552,0.5729,3.47,76,90,2.78,GB,1700957298
228,flying fish cove,-10.4217,105.6791,25.82,83,100,2.57,CX,1700957324
229,san sebastian de la gomera,28.0916,-17.1133,21.32,56,20,3.6,ES,1700957325
230,mwandiga,-4.83,29.6581,21.04,89,100,3.87,TZ,1700957325
231,richards bay,-28.783,32.0377,22.8,95,100,3.56,ZA,1700957325
232,tiksi,71.6872,128.8694,-25.57,96,80,1.03,RU,1700957326
233,colonia,50.9333,6.95,5.54,87,75,3.6,DE,1700957093
234,haiku-pauwela,20.9219,-156.3051,29.01,51,20,8.23,US,1700957327
235,mogadishu,2.0371,45.3438,27.69,77,85,7.0,SO,1700957206
236,vila franca do campo,37.7167,-25.4333,19.23,99,97,5.84,PT,1700957327
237,dezhou,37.4486,116.2925,0.56,91,13,0.49,CN,1700957328
238,san antonio de pale,-1.4014,5.6325,26.52,85,26,4.38,GQ,1700957328
239,tianpeng,30.9866,103.9393,14.24,64,20,0.34,CN,1700957329
240,fang,19.9169,99.2145,17.3,94,57,0.66,TH,1700957329
241,kayangel,8.0823,134.7173,28.81,76,7,7.11,PW,1700957330
242,al kharj,24.155,47.3346,19.32,66,74,2.81,SA,1700957330
243,port isabel,26.0734,-97.2086,23.04,87,100,2.57,US,1700957330
244,salym,60.0625,71.4789,-10.7,95,67,2.45,RU,1700957331
245,santa marta,11.2408,-74.199,27.16,78,17,2.24,CO,1700957331
246,tazovsky,67.4667,78.7,-20.62,89,18,4.9,RU,1700957332
247,kiunga,-6.1219,141.2906,25.44,94,99,0.39,PG,1700957332
248,barkly west,-28.5354,24.5215,25.53,30,39,0.52,ZA,1700957332
249,barreirinhas,-2.7469,-42.8264,26.78,75,15,4.59,BR,1700957333
250,mbanza-ngungu,-5.25,14.8667,19.19,93,100,0.58,CD,1700957333
251,puerto gaitan,4.3133,-72.0816,25.33,83,99,2.18,CO,1700957334
252,touros,-5.1989,-35.4608,26.23,69,0,7.43,BR,1700957334
253,kangaba,11.9333,-8.4167,24.35,25,100,1.52,ML,1700957335
254,tofol,5.3248,163.0078,28.88,84,100,1.54,FM,1700957335
255,collie,-33.3667,116.15,21.26,46,99,6.7,AU,1700957335
256,chui,-33.6971,-53.4616,13.68,86,47,3.15,UY,1700957336
257,sao joao da barra,-21.6403,-41.0511,22.49,68,100,2.04,BR,1700957336
258,kaoma,-14.7833,24.8,19.06,91,96,1.98,ZM,1700957337
259,ardabil,38.2498,48.2933,10.25,30,100,9.32,IR,1700957337
260,raja,8.4596,25.678,23.92,76,98,1.9,SS,1700957337
261,malabar,-33.9667,151.25,30.39,53,20,4.63,AU,1700957338
262,veraval,20.9,70.3667,23.67,82,32,3.24,IN,1700957338
263,ikot ekpene,5.1794,7.7108,24.48,92,100,1.9,NG,1700957339
264,quepos,9.4236,-84.1652,26.17,87,61,0.65,CR,1700957339
265,ancud,-41.8697,-73.8203,10.69,84,46,1.6,CL,1700957339
266,maun,-19.9833,23.4167,26.16,46,57,2.41,BW,1700957340
267,walvis bay,-22.9575,14.5053,16.16,82,0,2.12,NA,1700957340
268,tucuma,-0.1833,-50.05,26.84,77,56,3.02,BR,1700957341
269,nuku'alofa,-21.1333,-175.2,30.19,74,20,4.12,TO,1700957341
270,nenjiang,49.1833,125.2167,-21.35,92,35,1.88,CN,1700957341
271,springbok,-29.6643,17.8865,17.53,29,3,0.92,ZA,1700957342
272,katsuura,35.1333,140.3,13.47,85,100,5.98,JP,1700957342
273,ust-nera,64.5667,143.2,-30.48,99,99,2.61,RU,1700957343
274,conception bay south,47.4999,-52.9981,-1.16,71,64,5.32,CA,1700957343
275,bodo,67.28,14.405,-4.98,80,0,5.14,NO,1700957344
276,nanakuli,21.3906,-158.1547,28.97,63,75,6.69,US,1700957345
277,an nuhud,12.7,28.4333,25.75,25,9,4.89,SD,1700957345
278,nova xavantina,-14.6667,-52.35,28.08,57,73,1.32,BR,1700957346
279,usogorsk,63.4106,48.6872,-18.67,100,94,1.25,RU,1700957346
280,sargodha,32.0836,72.6711,16.53,35,100,1.84,PK,1700957347
281,okha,53.5739,142.9478,-13.98,93,100,11.54,RU,1700957347
282,zhanaozen,43.3,52.8,9.6,50,34,9.9,KZ,1700957347
283,la'ie,21.6477,-157.9253,28.98,72,22,4.02,US,1700957348
284,orange,33.7,-117.7675,21.59,54,20,3.6,US,1700957349
285,viesite,56.3475,25.5551,-5.03,96,100,2.09,LV,1700957349
286,vodice,43.7608,15.7828,4.98,52,0,7.43,HR,1700957349
287,zemio,5.0314,25.1361,19.68,99,86,1.25,CF,1700957350
288,miedzyrzec podlaski,51.9864,22.7825,-0.61,93,87,5.43,PL,1700957351
289,nejo,9.5,35.5,14.85,77,32,0.61,ET,1700957241
290,burang,30.25,81.1667,-2.78,44,67,1.02,CN,1700957352
291,mount pearl,47.5166,-52.7813,-1.49,72,77,1.79,CA,1700957352
292,kingston,17.997,-76.7936,26.23,91,100,1.39,JM,1700957352
293,patterson,37.4716,-121.1297,15.97,42,0,1.66,US,1700957353
294,mpika,-11.8343,31.4529,17.67,85,93,0.14,ZM,1700957353
295,lata,40.1629,-8.3327,7.26,92,56,1.05,PT,1700957354
296,syzran',53.1585,48.4681,0.1,98,100,1.55,RU,1700957354
297,nizhniy ingash,56.2,96.53,-17.91,96,73,1.06,RU,1700957355
298,burnie,-41.0667,145.9167,14.99,94,100,3.23,AU,1700957355
299,cold lake,54.4502,-110.2017,-3.67,58,63,6.21,CA,1700957355
300,coari,-4.085,-63.1414,22.53,98,100,0.91,BR,1700957159
301,howrah,22.5892,88.3103,19.0,82,20,2.57,IN,1700957356
302,homer,59.6425,-151.5483,6.54,87,100,0.0,US,1700957357
303,nushki,29.5542,66.0215,14.64,57,100,1.15,PK,1700957357
304,capelinha,-17.6914,-42.5158,19.48,69,61,3.1,BR,1700957357
305,san pedro,14.35,121.0167,27.4,85,84,2.68,PH,1700957358
306,lauro de freitas,-12.8944,-38.3272,27.01,74,20,3.6,BR,1700957359
307,hamilton,39.1834,-84.5333,5.95,69,0,2.06,US,1700957032
308,chake chake,-5.2459,39.7666,24.86,89,100,1.99,TZ,1700957360
309,weno,7.4515,151.8468,28.97,79,100,4.63,FM,1700957360
310,hobyo,5.3505,48.5268,26.7,82,63,7.96,SO,1700957185
311,tsiombe,-25.3,45.4833,24.02,68,0,2.73,MG,1700957361
312,yampil',51.95,33.7833,-0.92,86,100,2.52,UA,1700957361
313,kuta,-8.7233,115.1723,27.97,83,20,2.24,ID,1700957362
314,port augusta,-32.5,137.7667,22.09,49,2,5.95,AU,1700957362
315,ghanzi,-21.5667,21.7833,24.94,51,100,3.97,BW,1700957362
316,quatre cocos,-20.2078,57.7625,22.83,74,11,4.74,MU,1700957363
317,newman,37.3138,-121.0208,16.83,42,0,1.34,US,1700957364
318,kapa'a,22.0752,-159.319,27.18,81,75,4.63,US,1700957364
319,menaka,15.9182,2.4022,23.98,12,89,3.34,ML,1700957364
320,mossel bay,-34.1831,22.146,17.39,84,39,2.48,ZA,1700957365
321,maceio,-9.6658,-35.7353,25.88,66,38,4.56,BR,1700957234
322,dalandzadgad,43.5708,104.425,-4.08,61,66,3.87,MN,1700957366
323,ostersund,63.1792,14.6357,-9.75,85,20,3.6,SE,1700957366
324,paracuru,-3.41,-39.0306,27.84,76,4,4.9,BR,1700957367
325,yeppoon,-23.1333,150.7333,25.88,70,96,3.26,AU,1700957367
326,starobaltachevo,56.0013,55.9213,-0.07,95,100,3.69,RU,1700957368
327,pankovka,58.5,31.1999,-9.38,90,82,2.38,RU,1700957368
328,athens,37.9795,23.7162,13.98,57,57,8.94,GR,1700957148
329,pointe-du-lac,46.2869,-72.6845,-0.28,82,39,0.45,CA,1700957369
330,leninskoye,41.7589,69.3864,10.97,33,100,1.24,KZ,1700957369
331,vernon,50.2581,-119.2691,2.64,70,70,1.34,CA,1700957370
332,calvinia,-31.4707,19.776,18.83,37,17,1.36,ZA,1700957370
333,la ligua,-32.4524,-71.2311,15.89,79,0,1.66,CL,1700957355
334,pilsrundale,56.4167,24.0,-5.17,95,88,2.96,LV,1700957371
335,ta`u,-14.2336,-169.5144,27.96,81,64,6.76,AS,1700957372
336,ortigueira,-24.2083,-50.9494,13.93,99,100,1.36,BR,1700957372
337,agogo,6.8,-1.0819,21.66,97,100,1.46,GH,1700957373
338,sirte,31.2089,16.5887,19.18,52,2,10.58,LY,1700957373
339,coahuayana de hidalgo,18.7,-103.6583,25.35,73,2,0.96,MX,1700957374
340,polyarnyy,69.1989,33.4478,-8.53,84,98,2.05,RU,1700957374
341,yabelo,4.8833,38.0833,15.6,81,49,2.67,ET,1700957240
342,cartagena del chaira,1.3349,-74.8429,22.63,98,85,1.32,CO,1700957375
343,kilindoni,-7.9139,39.6668,26.91,76,100,4.17,TZ,1700957376
344,tamanrasset,22.785,5.5228,8.95,18,0,1.54,DZ,1700957376
345,manokwari,-0.8667,134.0833,28.43,72,70,3.05,ID,1700957375
346,la ronge,55.1001,-105.2842,-8.22,79,99,8.83,CA,1700957377
347,berberati,4.2612,15.7922,21.63,90,95,1.39,CF,1700957377
348,yicheng,31.3705,119.8703,11.57,81,27,1.94,CN,1700957378
349,villamontes,-21.25,-63.5,23.37,61,70,1.05,BO,1700957378
350,reggane,26.7158,0.1714,15.54,27,78,2.01,DZ,1700957379
351,mihaesti,45.0333,24.25,2.46,81,100,1.75,RO,1700957379
352,wewak,-3.5534,143.6268,29.27,70,78,2.21,PG,1700957380
353,qamdo,31.1667,97.2333,-11.56,22,0,0.8,CN,1700957380
354,awjilah,29.1081,21.2869,15.67,41,0,6.69,LY,1700957381
355,tbeng meanchey,13.8167,104.9667,22.48,82,100,0.79,KH,1700957381
356,kashmar,35.2383,58.4656,9.07,45,7,3.07,IR,1700957382
357,kolonia,50.9333,6.95,5.54,87,75,3.6,DE,1700957117
358,adelia maria,-33.6315,-64.021,24.24,41,0,3.58,AR,1700957382
359,karatau,43.1667,70.4667,4.42,72,97,2.0,KZ,1700957383
360,happy valley-goose bay,53.3168,-60.3315,-7.6,66,80,5.67,CA,1700957383
361,hakkari,37.5833,44.1667,3.88,60,75,5.14,TR,1700957384
362,broken hill,-31.95,141.4333,22.51,41,1,3.94,AU,1700957385
363,bridgewater,44.3835,-64.5155,-5.5,68,2,1.62,CA,1700957385
364,antsohihy,-14.8796,47.9875,24.56,76,96,2.57,MG,1700957385
365,samus',56.7475,84.6992,-7.09,84,98,3.1,RU,1700957386
366,balabac,7.9868,117.0645,28.39,79,100,6.42,PH,1700957386
367,isangel,-19.55,169.2667,29.06,54,75,5.14,VU,1700957387
368,olinda,-8.0089,-34.8553,25.89,68,30,5.64,BR,1700957387
369,ad dabbah,18.05,30.95,27.07,20,96,3.05,SD,1700957388
370,santa eularia des riu,38.9846,1.5341,16.12,74,75,2.57,ES,1700957389
371,florida city,25.4479,-80.4792,26.01,93,30,3.2,US,1700957390
372,fu'an,27.0892,119.6453,14.18,78,0,0.98,CN,1700957390
373,markala,13.7021,-6.0659,25.35,14,85,1.68,ML,1700957391
374,saint-joseph,-21.3667,55.6167,21.21,80,42,4.63,RE,1700957391
375,los lunas,34.8062,-106.7334,6.92,53,33,1.34,US,1700957391
376,ar ruways,24.1103,52.7306,24.23,66,56,4.12,AE,1700957392
377,central,30.5544,-91.0368,18.01,66,100,2.57,US,1700957392
378,male,4.1748,73.5089,27.78,76,64,2.37,MV,1700957393
379,halifax,44.6453,-63.5724,-2.0,62,1,4.63,CA,1700956827
380,fale old settlement,-9.3852,-171.2468,28.99,70,95,2.61,TK,1700957393
381,pisco,-13.7,-76.2167,19.45,82,0,7.72,PE,1700957109
382,tupancireta,-29.0806,-53.8358,15.95,82,2,4.16,BR,1700957394
383,mynamaki,60.7446,22.0243,-11.92,97,97,0.97,FI,1700957395
384,chonchi,-42.6128,-73.8092,11.73,85,58,0.58,CL,1700957395
385,gazli,40.1333,63.45,11.71,32,96,5.66,UZ,1700957395
386,mudgee,-32.5943,149.5871,24.32,75,100,2.89,AU,1700957396
387,timbuktu,16.7735,-3.0074,21.43,13,0,4.03,ML,1700957397
388,dryden,49.7833,-92.7503,-3.59,32,81,4.77,CA,1700957397
389,sant'agata di militello,38.0679,14.6327,10.81,62,96,10.91,IT,1700957397
390,villa de soto,-30.8552,-64.9995,21.9,41,25,6.3,AR,1700957398
391,madang,-5.2246,145.7966,29.66,69,54,1.5,PG,1700957398
392,taitung city,22.7583,121.1444,21.15,73,75,2.57,TW,1700957399
393,tayshet,55.9342,98.0044,-19.55,99,66,0.68,RU,1700957400
394,christiansburg,37.1298,-80.4089,1.11,79,0,0.0,US,1700957171
395,katpur,21.05,71.7833,23.81,72,47,3.7,IN,1700957403
396,skiatook,36.3684,-96.0014,11.45,65,100,4.48,US,1700957404
397,valbo,60.65,17.0333,-4.1,92,98,2.68,SE,1700957404
398,keflavik,64.0049,-22.5624,6.24,93,100,3.09,IS,1700957405
399,tazacorte,28.629,-17.9293,20.54,80,75,3.09,ES,1700957406
400,boquete,8.7833,-82.4333,20.66,83,89,0.45,PA,1700957406
401,carnarvon,-24.8667,113.6333,22.74,68,12,3.54,AU,1700957407
402,rawson,-43.3002,-65.1023,21.46,40,60,3.25,AR,1700957408
403,dwarka,22.2394,68.9678,25.7,66,83,1.8,IN,1700957408
404,kill devil hills,36.0307,-75.676,12.21,77,100,5.66,US,1700957270
405,kerikeri,-35.2268,173.9474,21.28,48,2,2.4,NZ,1700957401
406,bardai,11.65,7.2333,24.4,49,27,1.12,NG,1700957409
407,konarka,19.9,86.1167,19.22,66,53,3.4,IN,1700957410
408,san patricio,28.017,-97.5169,21.05,82,100,5.57,US,1700957410
409,parola,20.8833,75.1167,23.07,54,41,3.6,IN,1700957411
410,chardara,41.2547,67.9692,11.12,45,98,1.96,KZ,1700957411
411,yarmouth,41.7057,-70.2286,-1.1,70,0,1.34,US,1700957412
412,ambalangoda,6.2355,80.0538,24.32,88,69,1.92,LK,1700957412
413,along,28.1667,94.7667,11.51,63,0,0.84,IN,1700957412
414,bavly,54.393,53.2602,1.27,96,100,2.02,RU,1700957413
415,warrnambool,-38.3833,142.4833,14.37,82,100,7.48,AU,1700957413
416,christchurch,-43.5333,172.6333,20.3,55,2,2.06,NZ,1700956679
417,portland,45.5234,-122.6762,11.02,53,20,3.58,US,1700957155
418,bamboo flat,11.7,92.7167,26.69,73,99,4.72,IN,1700957414
419,chernyshevsk,52.5243,117.0174,-22.69,98,100,0.26,RU,1700957415
420,hassi messaoud,31.6804,6.0729,15.27,28,37,2.11,DZ,1700957416
421,sheridan,44.8333,-106.9173,-1.49,65,0,2.06,US,1700957416
422,kidal,18.4411,1.4078,20.03,11,0,2.3,ML,1700957416
423,nemuro,43.3236,145.575,0.13,60,39,6.55,JP,1700957417
424,morondava,-20.2833,44.2833,25.24,94,38,1.01,MG,1700957417
425,port-vila,-17.7338,168.3219,28.78,54,40,5.14,VU,1700957418
426,kenai,60.5544,-151.2583,3.38,98,100,3.09,US,1700957168
427,severo-yeniseyskiy,60.3725,93.0408,-29.18,100,11,1.4,RU,1700957418
428,nebraska city,40.6767,-95.8592,-2.65,93,100,0.0,US,1700957403
429,tralee,52.2704,-9.7026,9.32,94,100,2.69,IE,1700957420
430,villa ojo de agua,-29.5,-63.6938,17.58,65,3,4.2,AR,1700957420
431,fukuecho,32.6881,128.8419,13.22,58,94,2.94,JP,1700957420
432,bandarbeyla,9.4942,50.8122,26.11,70,60,6.83,SO,1700957421
433,leava,-14.3,-178.1667,28.31,78,89,6.19,WF,1700957421
434,magadan,59.5667,150.8,-16.93,75,100,3.66,RU,1700957422
435,ulety,51.3572,112.4849,-15.2,96,100,0.35,RU,1700957422
436,ulan bator,47.9077,106.8832,-11.15,90,100,0.87,MN,1700957423
437,mejit,10.2753,170.8646,27.3,79,98,7.07,MH,1700957423
438,changyon,38.2508,125.0961,2.51,89,99,3.53,KP,1700957424
439,vorkuta,67.5,64.0,-10.62,90,100,2.37,RU,1700957424
440,nordborg,55.0573,9.7408,0.94,75,20,2.57,DK,1700957425
441,glenfield park,-35.1372,147.334,23.66,43,0,4.68,AU,1700957425
442,khandyga,62.6667,135.6,-41.53,100,93,0.25,RU,1700957425
443,santo antonio,-6.3106,-35.4789,24.11,72,0,4.65,BR,1700957426
444,midvagur,62.0511,-7.1939,5.46,93,100,2.57,FO,1700957426
445,acajutla,13.5928,-89.8275,27.4,80,60,0.82,SV,1700957427
446,holyhead,53.3062,-4.6321,8.0,76,100,7.2,GB,1700957427
447,soron,27.8833,78.75,17.42,39,100,0.6,IN,1700957428
448,esmeraldas,-19.7625,-44.3139,22.08,94,96,2.98,BR,1700957428
449,shimanovsk,52.0,127.7,-18.18,72,0,3.03,RU,1700957375
450,richmond,37.5538,-77.4603,2.94,72,40,2.06,US,1700957400
451,daru,-9.0763,143.2092,29.11,69,90,4.99,PG,1700957430
452,planaltina,-15.4528,-47.6142,23.62,58,87,1.73,BR,1700957415
453,qarazhal,48.0078,70.7903,-0.2,44,100,3.25,KZ,1700957432
454,visby,57.6409,18.296,-0.88,80,100,7.72,SE,1700957251
455,muisne,0.6,-80.0333,25.51,83,77,2.09,EC,1700957434
456,nar'yan-mar,67.6713,53.087,-21.44,99,85,2.14,RU,1700957435
457,nuriootpa,-34.4833,139.0,18.54,60,100,3.48,AU,1700957401
458,ryotsu-minato,38.0833,138.4333,7.02,63,81,1.86,JP,1700957436
459,darwin,-12.4611,130.8418,29.99,70,75,2.06,AU,1700957417
460,mananara,-16.1667,49.7667,22.11,92,85,2.11,MG,1700957438
461,qui nhon,13.7667,109.2333,25.01,90,100,7.17,VN,1700957439
462,al kharijah,25.4514,30.5464,20.24,27,91,3.93,EG,1700957440
463,flin flon,54.7682,-101.865,-5.64,86,98,6.33,CA,1700957440
464,xining,36.6167,101.7667,-1.36,40,0,0.96,CN,1700957441
465,zinjibar,13.1287,45.3807,25.79,73,69,3.34,YE,1700957442
466,howard springs,-12.497,131.047,29.95,92,60,1.24,AU,1700957443
467,nizhneudinsk,54.9076,99.0276,-10.87,94,100,1.62,RU,1700957443
468,kulhudhuffushi,6.6221,73.07,28.12,77,66,4.84,MV,1700957444
469,selkirk,50.1436,-96.8845,-1.07,66,28,2.24,CA,1700957444
470,anchorage,61.2181,-149.9003,5.48,91,40,1.34,US,1700957266
471,palmas,-10.2128,-48.3603,28.12,49,99,1.16,BR,1700957445
472,whangarei,-35.7317,174.3239,20.84,49,6,4.25,NZ,1700957446
473,rio branco,-9.9747,-67.81,26.34,94,75,2.06,BR,1700957447
474,yen vinh,18.6667,105.6667,21.48,94,100,2.82,VN,1700957448
475,wynyard,-41.0,145.7167,15.12,95,100,2.44,AU,1700957449
476,rechka-vydrino,51.485,104.8461,-5.7,93,100,2.61,RU,1700957449
477,turabah,21.2141,41.6331,22.03,32,98,1.25,SA,1700957450
478,buon ma thuot,12.6667,108.05,22.19,89,100,3.09,VN,1700957451
479,shenjiamen,29.9576,122.298,14.9,67,3,1.15,CN,1700957452
480,bulungu,-4.55,18.6,20.23,98,100,0.39,CD,1700957236
481,hultsfred,57.4882,15.8436,-4.22,72,54,3.78,SE,1700957453
482,sydney mines,46.2367,-60.2177,-1.67,73,42,4.02,CA,1700957453
483,hammerfest,70.6634,23.6821,1.25,75,75,4.63,NO,1700957454
484,okahandja,-21.9833,16.9167,21.51,73,100,2.84,NA,1700957454
485,muroto-misakicho,33.2833,134.15,12.85,66,66,1.54,JP,1700957455
486,pacific grove,36.6177,-121.9166,17.97,45,0,2.57,US,1700957455
487,hasaki,35.7333,140.8333,7.94,81,100,6.14,JP,1700957427
488,queenstown,-31.8976,26.8753,17.61,91,100,2.15,ZA,1700957456
489,saynshand,44.8824,110.1163,-8.51,82,100,2.86,MN,1700957456
490,st. john's,47.5649,-52.7093,-1.03,72,84,2.24,CA,1700957233
491,margate,51.3813,1.3862,4.83,84,69,1.79,GB,1700957457
492,pulpi,37.4115,-1.745,11.81,73,8,1.84,ES,1700957458
493,huimanguillo,17.85,-93.3833,23.85,93,73,2.71,MX,1700957458
494,daye,30.0833,114.95,10.04,78,97,2.36,CN,1700957459
495,dampit,-8.2116,112.7493,24.19,86,100,1.43,ID,1700957460
496,papao,-17.75,-149.55,30.82,75,52,10.15,PF,1700957460
497,dunedin,-45.8742,170.5036,15.09,61,16,2.34,NZ,1700957170
498,klerksdorp,-26.8521,26.6667,22.44,34,66,2.62,ZA,1700957461
499,pocao de pedras,-4.6667,-44.85,28.66,54,59,1.58,BR,1700957461
500,shihezi,44.3,86.0333,1.4,70,27,0.52,CN,1700957462
501,shahrak,34.1074,64.3052,1.21,89,52,2.26,AF,1700957463
502,saint-philippe,-21.3585,55.7679,21.77,82,54,5.25,RE,1700957463
503,souillac,-20.5167,57.5167,23.62,79,3,3.72,MU,1700957463
504,santa cruz,-17.8,-63.1667,24.7,78,40,1.54,BO,1700957464
505,remire-montjoly,4.9167,-52.2667,26.02,83,75,3.09,GF,1700957464
506,praia da vitoria,38.7333,-27.0667,19.31,100,100,7.24,PT,1700957465
507,mglin,53.0591,32.8475,-2.1,94,92,2.14,RU,1700957466
508,gizo,-8.103,156.8419,28.81,75,37,0.92,SB,1700957466
509,marina di pisa-tirrenia-calambrone,43.6272,10.292,4.83,75,0,2.06,IT,1700957467
510,malango,-2.9627,119.9001,22.13,93,100,0.41,ID,1700957468
511,klyuchi,52.2667,79.1667,0.51,53,96,4.33,RU,1700957468
512,eyl,7.9803,49.8164,25.4,75,10,7.44,SO,1700957469
513,taunggyi,20.7833,97.0333,12.72,96,41,1.39,MM,1700957469
514,huarmey,-10.0681,-78.1522,20.59,81,75,4.48,PE,1700957469
515,upington,-28.4478,21.2561,22.55,11,14,2.48,ZA,1700957470
516,hami,42.8,93.45,-2.04,40,28,0.49,CN,1700957471
517,eura,61.1333,22.1333,-10.12,98,96,0.92,FI,1700957471
518,itapecerica,-20.4725,-45.1256,17.9,89,84,4.38,BR,1700957473
519,penza,53.2007,45.0046,0.7,98,100,5.81,RU,1700957360
520,huilong,31.8111,121.655,13.0,71,10,4.01,CN,1700957474
521,toungo,8.1167,12.05,25.12,70,97,1.9,NG,1700957474
522,menongue,-14.6585,17.691,17.07,94,94,1.21,AO,1700957475
523,laguna,38.421,-121.4238,16.73,33,0,3.09,US,1700957475
524,el golaa,33.4849,9.0068,14.2,49,0,0.94,TN,1700957476
525,tongren,27.7172,109.1853,11.33,82,100,0.69,CN,1700957476
526,kharp,66.8014,65.8081,-13.3,95,100,4.07,RU,1700957477
527,quthing,-30.4,27.7003,18.31,65,59,1.72,LS,1700957477
528,rizhao,35.4275,119.4553,8.53,79,100,2.01,CN,1700957478
529,pont rouge,48.8833,-72.0825,-1.81,81,99,5.05,CA,1700957479
530,puerto aysen,-45.4,-72.7,10.04,99,100,2.24,CL,1700957480
531,dudinka,69.4058,86.1778,-27.5,100,47,2.19,RU,1700957481
532,acarau,-2.8856,-40.12,26.93,72,15,6.75,BR,1700957481
533,vilcun,-38.65,-72.2333,10.93,92,2,1.45,CL,1700957485
534,itororo,-15.1169,-40.0703,22.23,83,62,1.76,BR,1700957486
535,tura,25.5198,90.2201,16.09,82,0,1.74,IN,1700957487
536,shache,38.4167,77.2406,2.35,32,25,0.41,CN,1700957487
537,villa zaragoza,22.0333,-100.7333,22.04,21,2,2.42,MX,1700957488
538,novyy urgal,51.0736,132.5642,-20.5,84,5,1.79,RU,1700957491
539,jurm,36.8648,70.8342,9.87,33,100,2.18,AF,1700957493
540,klaksvik,62.2266,-6.589,5.51,82,99,6.46,FO,1700957493
541,bereeda,11.8704,51.0579,26.18,67,43,4.11,SO,1700957494
542,bela,25.9333,81.9833,16.51,42,13,0.92,IN,1700957495
543,eisen,36.8217,128.6308,1.37,30,77,0.39,KR,1700957496
544,mont-laurier,46.5501,-75.4993,-0.87,82,85,4.33,CA,1700957496
545,munduk,-8.2687,115.0795,20.4,85,100,1.72,ID,1700957497
546,dawson creek,55.7666,-120.2362,-3.14,97,56,0.43,CA,1700957497
547,porto novo,6.4965,2.6036,26.44,84,91,2.58,BJ,1700957498
548,mwinilunga,-11.7358,24.4293,16.15,98,95,1.67,ZM,1700957498
549,tual,-5.6667,132.75,27.87,77,100,1.84,ID,1700957499
550,phultala,22.7,89.5167,18.43,81,2,1.64,BD,1700957499
551,sona,45.4388,10.8255,4.75,59,0,2.06,IT,1700957500
552,balqash,46.8481,74.995,1.29,52,91,4.99,KZ,1700957500
553,urangan,-25.3,152.9,23.39,69,92,2.84,AU,1700957501
554,lucelia,-21.7203,-51.0189,20.81,65,81,6.08,BR,1700957501
555,vasteras,59.6162,16.5528,-3.97,68,40,3.09,SE,1700957502
556,ola,59.5833,151.2833,-16.59,74,100,7.61,RU,1700957502
557,stanthorpe,-28.6667,151.95,19.68,80,96,2.56,AU,1700957503
558,kili,5.6439,169.1211,28.21,80,71,8.03,MH,1700957503
559,birzai,56.2,24.75,-4.18,97,100,2.9,LT,1700957504
560,alto barinas,8.5931,-70.2261,25.9,72,100,0.73,VE,1700957504
561,bafq,31.6128,55.4107,13.86,28,5,3.55,IR,1700957505
562,yuzhno-kurilsk,44.0306,145.8556,-0.35,78,97,9.37,RU,1700957505
563,pacasmayo,-7.4006,-79.5714,20.36,78,20,6.94,PE,1700957505
564,valparaiso,-33.0393,-71.6273,13.8,88,20,2.57,CL,1700957437
565,tommot,58.9564,126.2925,-20.53,91,100,5.1,RU,1700957241
566,gasa,31.5,34.4667,20.91,51,59,6.56,PS,1700957507
567,turpan,42.9333,89.1667,1.25,37,7,0.7,CN,1700957507
568,antsiranana,-12.2787,49.2917,24.82,80,100,7.44,MG,1700957507
569,tutoia,-2.7619,-42.2744,27.05,76,3,5.58,BR,1700957508
570,vadso,70.0744,29.7487,-0.91,86,100,4.12,NO,1700957508
571,arraial do cabo,-22.9661,-42.0278,21.23,56,93,0.39,BR,1700957326
572,singkil,-7.9855,111.4161,26.5,79,100,2.34,ID,1700957509
573,fuerte olimpo,-21.0415,-57.8738,24.95,82,93,1.42,PY,1700957509
574,glodeni,47.7708,27.5144,1.58,72,100,6.29,MD,1700957510
575,kaa-khem,51.6833,94.7333,-14.77,94,94,1.5,RU,1700957510
576,pavlovka,52.6897,47.1405,0.55,99,100,2.54,RU,1700957511
577,katsuren-haebaru,26.3369,127.8719,22.21,73,75,3.6,JP,1700957511
